{
"type": "FeatureCollection",
"name": "förskolor_Stockholm_wgs84_antalbarn",
"crs": { "type": "name", "properties": { "name": "urn:ogc:def:crs:OGC:1.3:CRS84" } },
"features": [
{ "type": "Feature", "properties": { "address": "Fatburs Brunnsgata 8", "changed": "2023-11-05", "created": "2023-03-30", "isPublished": true, "name": "A & M Önskeförskolan Fatburs Brunnsgata 8", "orgform": "Fristående", "numberOfChildren": 35.0, "nyko_code": "14102", "nyko": 14102.0, "nyko_name": "Södra Station", "abbrev_name": "S Stn" }, "geometry": { "type": "Point", "coordinates": [ 18.063053044411735, 59.313455062213798 ] } },
{ "type": "Feature", "properties": { "address": "Magnus Ladulåsgatan 8B", "changed": "2023-11-05", "created": "2023-03-30", "isPublished": true, "name": "A & M Önskeförskolan, Magnus Ladulåsgatan 8B", "orgform": "Fristående", "numberOfChildren": 38.0, "nyko_code": "14301", "nyko": 14301.0, "nyko_name": "Västra Katarina", "abbrev_name": "V Kat" }, "geometry": { "type": "Point", "coordinates": [ 18.059555269165287, 59.311392084796509 ] } },
{ "type": "Feature", "properties": { "address": "Bäverbäcksgränd 90", "changed": "2023-10-09", "created": "2023-03-30", "isPublished": true, "name": "Academica Förskolan Bäverdalen", "orgform": "Fristående", "numberOfChildren": 33.0, "nyko_code": "21303", "nyko": 21303.0, "nyko_name": "Rågsved", "abbrev_name": "Rågsved" }, "geometry": { "type": "Point", "coordinates": [ 18.036702531109611, 59.252890645538002 ] } },
{ "type": "Feature", "properties": { "address": "Lövsätragränd 40–42", "changed": "2023-03-30", "created": "2023-03-30", "isPublished": true, "name": "Academica Förskolan Ekgården", "orgform": "Fristående", "numberOfChildren": 38.0, "nyko_code": "21702", "nyko": 21702.0, "nyko_name": "Sätra", "abbrev_name": "Sätra" }, "geometry": { "type": "Point", "coordinates": [ 17.915296612922987, 59.285426691455804 ] } },
{ "type": "Feature", "properties": { "address": "Askersgatan 14", "changed": "2023-03-30", "created": "2023-03-30", "isPublished": true, "name": "Academica Förskolan Jordklotet", "orgform": "Fristående", "numberOfChildren": 45.0, "nyko_code": "21303", "nyko": 21303.0, "nyko_name": "Rågsved", "abbrev_name": "Rågsved" }, "geometry": { "type": "Point", "coordinates": [ 18.027541311613554, 59.259894729753974 ] } },
{ "type": "Feature", "properties": { "address": "Norrtullsgatan 7", "changed": "2023-06-30", "created": "2023-03-30", "isPublished": true, "name": "Adolf Fredriks och Gustav Vasa Barnkrubba", "orgform": "Fristående", "numberOfChildren": 52.0, "nyko_code": "11301", "nyko": 11301.0, "nyko_name": "Gustav Vasa", "abbrev_name": "GV" }, "geometry": { "type": "Point", "coordinates": [ 18.052034164869859, 59.34163747287193 ] } },
{ "type": "Feature", "properties": { "address": "Oxenstiernsgatan 31", "changed": "2023-06-30", "created": "2023-03-30", "isPublished": true, "name": "af Crocodill", "orgform": "Fristående", "numberOfChildren": 26.0, "nyko_code": "12301", "nyko": 12301.0, "nyko_name": "Oscars k:a", "abbrev_name": "Osc K:a" }, "geometry": { "type": "Point", "coordinates": [ 18.101716913234274, 59.336886495919124 ] } },
{ "type": "Feature", "properties": { "address": "Norrbackagatan 43", "changed": "2023-06-30", "created": "2023-03-30", "isPublished": true, "name": "Agneta Göras & Barnen", "orgform": "Fristående", "numberOfChildren": 8.0, "nyko_code": "11402", "nyko": 11402.0, "nyko_name": "Västra Matteus", "abbrev_name": "V Mat" }, "geometry": { "type": "Point", "coordinates": [ 18.031423449485644, 59.344471690487858 ] } },
{ "type": "Feature", "properties": { "address": "Linnégatan 85", "changed": "2023-06-30", "created": "2023-03-30", "isPublished": true, "name": "Alexanderskolan Linné", "orgform": "Fristående", "numberOfChildren": 60.0, "nyko_code": "12301", "nyko": 12301.0, "nyko_name": "Oscars k:a", "abbrev_name": "Osc K:a" }, "geometry": { "type": "Point", "coordinates": [ 18.092574364496947, 59.33476585577219 ] } },
{ "type": "Feature", "properties": { "address": "Saltmätargatan 11", "changed": "2023-06-30", "created": "2023-03-30", "isPublished": true, "name": "Alexanderskolan Saltmätargatan", "orgform": "Fristående", "numberOfChildren": 105.0, "nyko_code": "11202", "nyko": 11202.0, "nyko_name": "Norra Adolf Fredrik", "abbrev_name": "N AFr" }, "geometry": { "type": "Point", "coordinates": [ 18.057953492096662, 59.339974308798134 ] } },
{ "type": "Feature", "properties": { "address": "Skeppargatan 51", "changed": "2023-06-30", "created": "2023-03-30", "isPublished": true, "name": "Alexanderskolan Skeppargatan", "orgform": "Fristående", "numberOfChildren": 29.0, "nyko_code": "12201", "nyko": 12201.0, "nyko_name": "Hedvig Eleonora", "abbrev_name": "H E" }, "geometry": { "type": "Point", "coordinates": [ 18.085218634873016, 59.337140691234666 ] } },
{ "type": "Feature", "properties": { "address": "Västmannagatan 31", "changed": "2023-06-30", "created": "2023-03-30", "isPublished": true, "name": "Alexanderskolan Västmannagatan", "orgform": "Fristående", "numberOfChildren": 24.0, "nyko_code": "11202", "nyko": 11202.0, "nyko_name": "Norra Adolf Fredrik", "abbrev_name": "N AFr" }, "geometry": { "type": "Point", "coordinates": [ 18.049869178903748, 59.33925952481831 ] } },
{ "type": "Feature", "properties": { "address": "Riddersviksvägen 116", "changed": "2023-03-30", "created": "2023-03-30", "isPublished": true, "name": "Allmänna förskolan i Hässelby", "orgform": "Fristående", "numberOfChildren": 30.0, "nyko_code": "22503", "nyko": 22503.0, "nyko_name": "Hässelby Villastad", "abbrev_name": "Häb Vst" }, "geometry": { "type": "Point", "coordinates": [ 17.814039252541416, 59.377233045624102 ] } },
{ "type": "Feature", "properties": { "address": "Birger Jarlsgatan 113 B", "changed": "2023-06-30", "created": "2023-03-30", "isPublished": true, "name": "Amadeus Trubaduren", "orgform": "Fristående", "numberOfChildren": 19.0, "nyko_code": "11102", "nyko": 11102.0, "nyko_name": "Norra Johannes", "abbrev_name": "N Joh" }, "geometry": { "type": "Point", "coordinates": [ 18.058830584204109, 59.34925569573484 ] } },
{ "type": "Feature", "properties": { "address": "Utflyktsvägen 4", "changed": "2023-10-09", "created": "2023-03-30", "isPublished": true, "name": "Andante förskolor Utflyktsvägen", "orgform": "Fristående", "numberOfChildren": 15.0, "nyko_code": "22204", "nyko": 22204.0, "nyko_name": "Nockebyhov", "abbrev_name": "Nobyh" }, "geometry": { "type": "Point", "coordinates": [ 17.911548610718253, 59.330271443673624 ] } },
{ "type": "Feature", "properties": { "address": "Vinthundsvägen 25", "changed": "2023-03-30", "created": "2023-03-30", "isPublished": true, "name": "Angelica Arvidssons Familjedaghem", "orgform": "Fristående", "numberOfChildren": 6.0, "nyko_code": "21608", "nyko": 21608.0, "nyko_name": "Sköndal", "abbrev_name": "Sköndal" }, "geometry": { "type": "Point", "coordinates": [ 18.116004346826617, 59.265411511764633 ] } },
{ "type": "Feature", "properties": { "address": "Forsbackagatan 11", "changed": "2023-03-30", "created": "2023-03-30", "isPublished": true, "name": "Ann-Catrine Werner, familjedaghemmet Sagotåget", "orgform": "Fristående", "numberOfChildren": 0.0, "nyko_code": "21607", "nyko": 21607.0, "nyko_name": "Larsboda", "abbrev_name": "Larsb" }, "geometry": { "type": "Point", "coordinates": [ 18.108499286656908, 59.237661992522284 ] } },
{ "type": "Feature", "properties": { "address": "Pippi Långstrumps gata 35", "changed": "2023-03-30", "created": "2023-03-30", "isPublished": true, "name": "Annedals Montessoriförskola", "orgform": "Fristående", "numberOfChildren": 36.0, "nyko_code": "22107", "nyko": 22107.0, "nyko_name": "Mariehäll", "abbrev_name": "Marieh" }, "geometry": { "type": "Point", "coordinates": [ 17.947032355996253, 59.365559638084349 ] } },
{ "type": "Feature", "properties": { "address": "Sätragårdsvägen 159", "changed": "2023-03-30", "created": "2023-03-30", "isPublished": true, "name": "Anneli Erikssons familjedaghem", "orgform": "Fristående", "numberOfChildren": 0.0, "nyko_code": "21702", "nyko": 21702.0, "nyko_name": "Sätra", "abbrev_name": "Sätra" }, "geometry": { "type": "Point", "coordinates": [ 17.908484944647746, 59.287109695812376 ] } },
{ "type": "Feature", "properties": { "address": "Karlskronavägen 23", "changed": "2023-03-30", "created": "2023-03-30", "isPublished": true, "name": "Anne-Sofies barnomsorg", "orgform": "Fristående", "numberOfChildren": 0.0, "nyko_code": "21501", "nyko": 21501.0, "nyko_name": "Björkhagen", "abbrev_name": "Bjöhg" }, "geometry": { "type": "Point", "coordinates": [ 18.118737385994702, 59.294996160514387 ] } },
{ "type": "Feature", "properties": { "address": "Bersågränd 92", "changed": "2023-03-30", "created": "2023-03-30", "isPublished": true, "name": "Annika Tjernengs Familjedaghem", "orgform": "Fristående", "numberOfChildren": 6.0, "nyko_code": "21403", "nyko": 21403.0, "nyko_name": "Gamla Enskede", "abbrev_name": "G:la En" }, "geometry": { "type": "Point", "coordinates": [ 18.095792715349226, 59.285921700989235 ] } },
{ "type": "Feature", "properties": { "address": "Askersundsgatan 8", "changed": "2023-03-30", "created": "2023-03-30", "isPublished": true, "name": "Arken", "orgform": "Kommunal", "numberOfChildren": 73.0, "nyko_code": "21303", "nyko": 21303.0, "nyko_name": "Rågsved", "abbrev_name": "Rågsved" }, "geometry": { "type": "Point", "coordinates": [ 18.031047565957365, 59.259938824250504 ] } },
{ "type": "Feature", "properties": { "address": "Högbergsgatan 31 C", "changed": "2023-03-30", "created": "2023-03-30", "isPublished": true, "name": "Ask & Embla/TP förskolor, Högbergsgatan 31C", "orgform": "Fristående", "numberOfChildren": 20.0, "nyko_code": "14302", "nyko": 14302.0, "nyko_name": "Östra Katarina", "abbrev_name": "Ö Kat" }, "geometry": { "type": "Point", "coordinates": [ 18.073312898465584, 59.31606189042833 ] } },
{ "type": "Feature", "properties": { "address": "Bjälbogatan 22", "changed": "2023-03-30", "created": "2023-03-30", "isPublished": true, "name": "Ask & Embla/TP förskolor, Rosenlund", "orgform": "Fristående", "numberOfChildren": 90.0, "nyko_code": "14301", "nyko": 14301.0, "nyko_name": "Västra Katarina", "abbrev_name": "V Kat" }, "geometry": { "type": "Point", "coordinates": [ 18.06492841141533, 59.311667793768301 ] } },
{ "type": "Feature", "properties": { "address": "Åsögatan 109", "changed": "2023-03-30", "created": "2023-03-30", "isPublished": true, "name": "Ask & Embla/TP förskolor, Åsögatan 109", "orgform": "Fristående", "numberOfChildren": 40.0, "nyko_code": "14301", "nyko": 14301.0, "nyko_name": "Västra Katarina", "abbrev_name": "V Kat" }, "geometry": { "type": "Point", "coordinates": [ 18.073113167782026, 59.313000975514356 ] } },
{ "type": "Feature", "properties": { "address": "Åsögatan 84", "changed": "2023-03-30", "created": "2023-03-30", "isPublished": true, "name": "Ask & Embla/TP förskolor, Åsögatan 84", "orgform": "Fristående", "numberOfChildren": 20.0, "nyko_code": "14301", "nyko": 14301.0, "nyko_name": "Västra Katarina", "abbrev_name": "V Kat" }, "geometry": { "type": "Point", "coordinates": [ 18.068317370771801, 59.311827640411899 ] } },
{ "type": "Feature", "properties": { "address": "Aslögsvägen 19/Utgårdsvägen 55 A", "changed": "2024-02-23", "created": "2023-03-30", "isPublished": true, "name": "Aslögsvägen 19", "orgform": "Kommunal", "numberOfChildren": 75.0, "nyko_code": "22406", "nyko": 22406.0, "nyko_name": "Solhem", "abbrev_name": "Solh" }, "geometry": { "type": "Point", "coordinates": [ 17.879597057519174, 59.383925714210569 ] } },
{ "type": "Feature", "properties": { "address": "Tönsbergsgatan 15", "changed": "2023-06-30", "created": "2023-03-30", "isPublished": true, "name": "Ayans förskola AB", "orgform": "Fristående", "numberOfChildren": 20.0, "nyko_code": "22602", "nyko": 22602.0, "nyko_name": "Husby", "abbrev_name": "Husby" }, "geometry": { "type": "Point", "coordinates": [ 17.933090833084101, 59.408281458883714 ] } },
{ "type": "Feature", "properties": { "address": "Glidflyktsgatan 5", "changed": "2023-09-25", "created": "2023-03-30", "isPublished": true, "name": "Ballongen", "orgform": "Kommunal", "numberOfChildren": 54.0, "nyko_code": "21507", "nyko": 21507.0, "nyko_name": "Skarpnäcks Gård", "abbrev_name": "Skp G" }, "geometry": { "type": "Point", "coordinates": [ 18.130567479301661, 59.268018916555761 ] } },
{ "type": "Feature", "properties": { "address": "Döbelnsgatan 91", "changed": "2023-06-30", "created": "2023-03-30", "isPublished": true, "name": "Baltazar Förskolor Norrmalm", "orgform": "Fristående", "numberOfChildren": 60.0, "nyko_code": "11102", "nyko": 11102.0, "nyko_name": "Norra Johannes", "abbrev_name": "N Joh" }, "geometry": { "type": "Point", "coordinates": [ 18.055555965421867, 59.34602556604635 ] } },
{ "type": "Feature", "properties": { "address": "Fatburskvarngata 38", "changed": "2023-06-29", "created": "2023-03-30", "isPublished": true, "name": "Baltazar Förskolor Södermalm", "orgform": "Fristående", "numberOfChildren": 50.0, "nyko_code": "14102", "nyko": 14102.0, "nyko_name": "Södra Station", "abbrev_name": "S Stn" }, "geometry": { "type": "Point", "coordinates": [ 18.061367109674709, 59.31328531123529 ] } },
{ "type": "Feature", "properties": { "address": "Rosenlundsgatan 48A", "changed": "2023-08-17", "created": "2023-03-30", "isPublished": true, "name": "Bamse språkförskola", "orgform": "Kommunal", "numberOfChildren": 24.0, "nyko_code": "14203", "nyko": 14203.0, "nyko_name": "Södra Högalid", "abbrev_name": "S Hög" }, "geometry": { "type": "Point", "coordinates": [ 18.057275337520334, 59.312910155751872 ] } },
{ "type": "Feature", "properties": { "address": "Johannisdalsgatan 41", "changed": "2023-03-30", "created": "2023-03-30", "isPublished": true, "name": "Barn i Focus", "orgform": "Fristående", "numberOfChildren": 6.0, "nyko_code": "21108", "nyko": 21108.0, "nyko_name": "Mälarhöjden", "abbrev_name": "Mälh" }, "geometry": { "type": "Point", "coordinates": [ 17.95604507579861, 59.290635322262332 ] } },
{ "type": "Feature", "properties": { "address": "Skarpnäcksvägen 67A", "changed": "2024-01-16", "created": "2023-03-30", "isPublished": true, "name": "Barnasinnet", "orgform": "Kommunal", "numberOfChildren": 68.0, "nyko_code": "21507", "nyko": 21507.0, "nyko_name": "Skarpnäcks Gård", "abbrev_name": "Skp G" }, "geometry": { "type": "Point", "coordinates": [ 18.115154219081528, 59.273284820907776 ] } },
{ "type": "Feature", "properties": { "address": "Torstenssonsgatan 15", "changed": "2023-06-30", "created": "2023-03-30", "isPublished": true, "name": "Barnens Montessoriakademi Torsten", "orgform": "Fristående", "numberOfChildren": 40.0, "nyko_code": "12301", "nyko": 12301.0, "nyko_name": "Oscars k:a", "abbrev_name": "Osc K:a" }, "geometry": { "type": "Point", "coordinates": [ 18.08942622147902, 59.333556213009054 ] } },
{ "type": "Feature", "properties": { "address": "Värtavägen 22", "changed": "2023-06-30", "created": "2023-03-30", "isPublished": true, "name": "Barnens Montessoriakademi Värtan", "orgform": "Fristående", "numberOfChildren": 30.0, "nyko_code": "12303", "nyko": 12303.0, "nyko_name": "Gärdet", "abbrev_name": "Gärdet" }, "geometry": { "type": "Point", "coordinates": [ 18.09592949121328, 59.340759791970044 ] } },
{ "type": "Feature", "properties": { "address": "Bersågränd 8", "changed": "2023-03-30", "created": "2023-03-30", "isPublished": true, "name": "Barnkammaren Bersågränd 8", "orgform": "Fristående", "numberOfChildren": 5.0, "nyko_code": "21403", "nyko": 21403.0, "nyko_name": "Gamla Enskede", "abbrev_name": "G:la En" }, "geometry": { "type": "Point", "coordinates": [ 18.097982466676051, 59.284771059372126 ] } },
{ "type": "Feature", "properties": { "address": "Gransätragränd 47", "changed": "2023-03-30", "created": "2023-03-30", "isPublished": true, "name": "Barnkråkan", "orgform": "Fristående", "numberOfChildren": 4.0, "nyko_code": "21702", "nyko": 21702.0, "nyko_name": "Sätra", "abbrev_name": "Sätra" }, "geometry": { "type": "Point", "coordinates": [ 17.913457208437617, 59.284348282893845 ] } },
{ "type": "Feature", "properties": { "address": "Brådstupsvägen 5–9", "changed": "2023-03-30", "created": "2023-03-30", "isPublished": true, "name": "Bellmanskällans Montessoriförskola", "orgform": "Fristående (föräldrakooperativ)", "numberOfChildren": 79.0, "nyko_code": "21103", "nyko": 21103.0, "nyko_name": "Hägersten", "abbrev_name": "Häg" }, "geometry": { "type": "Point", "coordinates": [ 17.958625561396257, 59.304190894563362 ] } },
{ "type": "Feature", "properties": { "address": "Sjöviksvägen 112–116", "changed": "2024-02-28", "created": "2023-03-30", "isPublished": true, "name": "Berget", "orgform": "Kommunal", "numberOfChildren": 72.0, "nyko_code": "21106", "nyko": 21106.0, "nyko_name": "Liljeholmen", "abbrev_name": "Liljh" }, "geometry": { "type": "Point", "coordinates": [ 18.034793109905014, 59.30553033600512 ] } },
{ "type": "Feature", "properties": { "address": "Säfflegatan 9", "changed": "2023-03-30", "created": "2023-03-30", "isPublished": true, "name": "Berit Lidbergs privata familjedaghem", "orgform": "Fristående", "numberOfChildren": 0.0, "nyko_code": "21602", "nyko": 21602.0, "nyko_name": "Farsta", "abbrev_name": "Farsta" }, "geometry": { "type": "Point", "coordinates": [ 18.097817064757677, 59.239331155042606 ] } },
{ "type": "Feature", "properties": { "address": "Bifrostvägen 2–6", "changed": "2024-02-23", "created": "2023-03-30", "isPublished": true, "name": "Bifrostvägen 2–6", "orgform": "Kommunal", "numberOfChildren": 53.0, "nyko_code": "22406", "nyko": 22406.0, "nyko_name": "Solhem", "abbrev_name": "Solh" }, "geometry": { "type": "Point", "coordinates": [ 17.899510206260864, 59.37353876565011 ] } },
{ "type": "Feature", "properties": { "address": "Karlbergsvägen 74–76", "changed": "2023-12-04", "created": "2023-03-30", "isPublished": true, "name": "Birkagårdens förskola, 74:an", "orgform": "Fristående", "numberOfChildren": 70.0, "nyko_code": "11402", "nyko": 11402.0, "nyko_name": "Västra Matteus", "abbrev_name": "V Mat" }, "geometry": { "type": "Point", "coordinates": [ 18.029787750986078, 59.343035822294759 ] } },
{ "type": "Feature", "properties": { "address": "Tomtebogatan 45-47", "changed": "2023-12-04", "created": "2023-03-30", "isPublished": true, "name": "Birkagårdens förskola, Karlavagnen", "orgform": "Fristående", "numberOfChildren": 53.0, "nyko_code": "11402", "nyko": 11402.0, "nyko_name": "Västra Matteus", "abbrev_name": "V Mat" }, "geometry": { "type": "Point", "coordinates": [ 18.028082275832539, 59.342057753822289 ] } },
{ "type": "Feature", "properties": { "address": "Karlbergsvägen 80", "changed": "2023-12-11", "created": "2023-03-30", "isPublished": true, "name": "Birkagårdens förskola, Matteus", "orgform": "Fristående", "numberOfChildren": 35.0, "nyko_code": "11402", "nyko": 11402.0, "nyko_name": "Västra Matteus", "abbrev_name": "V Mat" }, "geometry": { "type": "Point", "coordinates": [ 18.0291200814025, 59.343197551485986 ] } },
{ "type": "Feature", "properties": { "address": "Birkagatan 16", "changed": "2023-12-04", "created": "2023-03-30", "isPublished": true, "name": "Birkagårdens förskola, Sol-Ägget", "orgform": "Fristående", "numberOfChildren": 18.0, "nyko_code": "11402", "nyko": 11402.0, "nyko_name": "Västra Matteus", "abbrev_name": "V Mat" }, "geometry": { "type": "Point", "coordinates": [ 18.035004370390347, 59.340287693149847 ] } },
{ "type": "Feature", "properties": { "address": "Vultejusvägen 59", "changed": "2023-10-09", "created": "2023-03-30", "isPublished": true, "name": "Birkamyntet – Ängbybarnens förskolor", "orgform": "Fristående", "numberOfChildren": 37.0, "nyko_code": "22108", "nyko": 22108.0, "nyko_name": "Norra Ängby", "abbrev_name": "N Äby" }, "geometry": { "type": "Point", "coordinates": [ 17.908841166801754, 59.344165339227558 ] } },
{ "type": "Feature", "properties": { "address": "Spånga Kyrkväg 470–474", "changed": "2023-11-07", "created": "2023-03-30", "isPublished": true, "name": "Bittinge, Spånga kyrkväg 474", "orgform": "Kommunal", "numberOfChildren": 110.0, "nyko_code": "22408", "nyko": 22408.0, "nyko_name": "Tensta", "abbrev_name": "Tensta" }, "geometry": { "type": "Point", "coordinates": [ 17.9100422021349, 59.388420560501274 ] } },
{ "type": "Feature", "properties": { "address": "Björingeplan 1/Faringeplan 8", "changed": "2023-11-07", "created": "2023-03-30", "isPublished": true, "name": "Björinge, Björingeplan 1", "orgform": "Kommunal", "numberOfChildren": 78.0, "nyko_code": "22408", "nyko": 22408.0, "nyko_name": "Tensta", "abbrev_name": "Tensta" }, "geometry": { "type": "Point", "coordinates": [ 17.902733131300657, 59.390569682104612 ] } },
{ "type": "Feature", "properties": { "address": "Helsingborgsvägen 16", "changed": "2023-12-15", "created": "2023-03-30", "isPublished": true, "name": "Björken Helsingborgsvägen 16", "orgform": "Kommunal", "numberOfChildren": 72.0, "nyko_code": "21501", "nyko": 21501.0, "nyko_name": "Björkhagen", "abbrev_name": "Bjöhg" }, "geometry": { "type": "Point", "coordinates": [ 18.119128372006216, 59.291378211802758 ] } },
{ "type": "Feature", "properties": { "address": "Småbjörksvägen 1", "changed": "2023-06-30", "created": "2023-03-30", "isPublished": true, "name": "Björken Småbjörksvägen 1", "orgform": "Kommunal", "numberOfChildren": 66.0, "nyko_code": "22401", "nyko": 22401.0, "nyko_name": "Bromsten", "abbrev_name": "Broms" }, "geometry": { "type": "Point", "coordinates": [ 17.924472625602899, 59.380252097318703 ] } },
{ "type": "Feature", "properties": { "address": "Bäckbornas väg 17", "changed": "2023-03-30", "created": "2023-03-30", "isPublished": true, "name": "Björntjänst", "orgform": "Fristående", "numberOfChildren": 45.0, "nyko_code": "22102", "nyko": 22102.0, "nyko_name": "Beckomberga", "abbrev_name": "Bebga" }, "geometry": { "type": "Point", "coordinates": [ 17.901300743863107, 59.362669533182505 ] } },
{ "type": "Feature", "properties": { "address": "Holbergsgatan 109", "changed": "2023-03-30", "created": "2023-03-30", "isPublished": true, "name": "Blackebergs Montessoriförskola", "orgform": "Fristående", "numberOfChildren": 36.0, "nyko_code": "22103", "nyko": 22103.0, "nyko_name": "Blackeberg", "abbrev_name": "Blabg" }, "geometry": { "type": "Point", "coordinates": [ 17.884867923713522, 59.344649064936952 ] } },
{ "type": "Feature", "properties": { "address": "Värmlandsvägen 2–6", "changed": "2023-03-30", "created": "2023-03-30", "isPublished": true, "name": "Blombacka", "orgform": "Kommunal", "numberOfChildren": 124.0, "nyko_code": "21602", "nyko": 21602.0, "nyko_name": "Farsta", "abbrev_name": "Farsta" }, "geometry": { "type": "Point", "coordinates": [ 18.089079453411262, 59.248017916745972 ] } },
{ "type": "Feature", "properties": { "address": "Frislandsvägen 1–3", "changed": "2023-10-09", "created": "2023-03-30", "isPublished": true, "name": "Blomstermåla – Ängbybarnens förskolor", "orgform": "Fristående", "numberOfChildren": 39.0, "nyko_code": "22108", "nyko": 22108.0, "nyko_name": "Norra Ängby", "abbrev_name": "N Äby" }, "geometry": { "type": "Point", "coordinates": [ 17.900217679273617, 59.348252345227117 ] } },
{ "type": "Feature", "properties": { "address": "Missionsvägen 14", "changed": "2023-10-09", "created": "2023-03-30", "isPublished": true, "name": "Blå Grodan", "orgform": "Fristående (föräldrakooperativ)", "numberOfChildren": 25.0, "nyko_code": "22208", "nyko": 22208.0, "nyko_name": "Traneberg", "abbrev_name": "Trbg" }, "geometry": { "type": "Point", "coordinates": [ 17.983621760463468, 59.341727615823686 ] } },
{ "type": "Feature", "properties": { "address": "Brudkronevägen 23", "changed": "2023-10-09", "created": "2023-03-30", "isPublished": true, "name": "Blåsippan pedagogisk verksamhet", "orgform": "Fristående", "numberOfChildren": 12.0, "nyko_code": "21206", "nyko": 21206.0, "nyko_name": "Solberga", "abbrev_name": "Solbga" }, "geometry": { "type": "Point", "coordinates": [ 17.991508325732362, 59.286567061449666 ] } },
{ "type": "Feature", "properties": { "address": "Blåsutvägen 38", "changed": "2023-09-18", "created": "2023-03-30", "isPublished": true, "name": "Blåsutgården", "orgform": "Kommunal", "numberOfChildren": 83.0, "nyko_code": "21406", "nyko": 21406.0, "nyko_name": "Johanneshov", "abbrev_name": "Johv" }, "geometry": { "type": "Point", "coordinates": [ 18.0899627128682, 59.290584743289884 ] } },
{ "type": "Feature", "properties": { "address": "Bondegatan 31", "changed": "2024-01-08", "created": "2023-03-30", "isPublished": true, "name": "Bonden", "orgform": "Kommunal", "numberOfChildren": 88.0, "nyko_code": "14302", "nyko": 14302.0, "nyko_name": "Östra Katarina", "abbrev_name": "Ö Kat" }, "geometry": { "type": "Point", "coordinates": [ 18.083579304282871, 59.313542257398076 ] } },
{ "type": "Feature", "properties": { "address": "Blåsippsbacken 18", "changed": "2023-03-30", "created": "2023-03-30", "isPublished": true, "name": "Bonnie Lillehammer I Ur och Skur Blåsippsbacken", "orgform": "Fristående", "numberOfChildren": 8.0, "nyko_code": "22305", "nyko": 22305.0, "nyko_name": "Vinsta", "abbrev_name": "Vin" }, "geometry": { "type": "Point", "coordinates": [ 17.838493112077444, 59.376915520363298 ] } },
{ "type": "Feature", "properties": { "address": "Mossvägen 7", "changed": "2023-03-30", "created": "2023-03-30", "isPublished": true, "name": "Bromma Enskilda Skolas förskola", "orgform": "Fristående", "numberOfChildren": 50.0, "nyko_code": "22207", "nyko": 22207.0, "nyko_name": "Stora Mossen", "abbrev_name": "St Mo" }, "geometry": { "type": "Point", "coordinates": [ 17.964250887281032, 59.32993748525324 ] } },
{ "type": "Feature", "properties": { "address": "Marklandsbacken 2", "changed": "2023-10-09", "created": "2023-03-30", "isPublished": true, "name": "Bromma språkförskola", "orgform": "Kommunal", "numberOfChildren": 8.0, "nyko_code": "22114", "nyko": 22114.0, "nyko_name": "Åkeslund", "abbrev_name": "Åkesl" }, "geometry": { "type": "Point", "coordinates": [ 17.9367982753358, 59.336803135942048 ] } },
{ "type": "Feature", "properties": { "address": "Grönviksvägen 107", "changed": "2023-03-30", "created": "2023-03-30", "isPublished": true, "name": "Brommakrokodilens Montessoriförskola", "orgform": "Fristående", "numberOfChildren": 26.0, "nyko_code": "22203", "nyko": 22203.0, "nyko_name": "Nockeby", "abbrev_name": "Noby" }, "geometry": { "type": "Point", "coordinates": [ 17.927971673081299, 59.323091293899708 ] } },
{ "type": "Feature", "properties": { "address": "Duvbovägen 127", "changed": "2023-06-30", "created": "2023-03-30", "isPublished": true, "name": "Bromstens gård, Duvbovägen 127", "orgform": "Kommunal", "numberOfChildren": 53.0, "nyko_code": "22401", "nyko": 22401.0, "nyko_name": "Bromsten", "abbrev_name": "Broms" }, "geometry": { "type": "Point", "coordinates": [ 17.910763314868863, 59.381868193832624 ] } },
{ "type": "Feature", "properties": { "address": "Bryggvägen 13-15", "changed": "2024-01-30", "created": "2023-03-30", "isPublished": true, "name": "Bryggan", "orgform": "Kommunal", "numberOfChildren": 55.0, "nyko_code": "21102", "nyko": 21102.0, "nyko_name": "Gröndal", "abbrev_name": "Grön" }, "geometry": { "type": "Point", "coordinates": [ 17.998279106598584, 59.316378727508315 ] } },
{ "type": "Feature", "properties": { "address": "Hälsingegatan 14–16", "changed": "2024-02-15", "created": "2023-03-30", "isPublished": true, "name": "Bubblan", "orgform": "Fristående", "numberOfChildren": 55.0, "nyko_code": "11401", "nyko": 11401.0, "nyko_name": "Östra Matteus", "abbrev_name": "Ö Mat" }, "geometry": { "type": "Point", "coordinates": [ 18.041001558775072, 59.344415171145307 ] } },
{ "type": "Feature", "properties": { "address": "Fältvägen 3", "changed": "2023-06-30", "created": "2023-03-30", "isPublished": true, "name": "Bullerbyn Fältvägen 3", "orgform": "Kommunal", "numberOfChildren": 34.0, "nyko_code": "22401", "nyko": 22401.0, "nyko_name": "Bromsten", "abbrev_name": "Broms" }, "geometry": { "type": "Point", "coordinates": [ 17.913597517896985, 59.381250720805014 ] } },
{ "type": "Feature", "properties": { "address": "Johan Skyttes väg 325-327", "changed": "2023-03-30", "created": "2023-03-30", "isPublished": true, "name": "Bullerbyn Johan Skyttes väg 325–327", "orgform": "Fristående", "numberOfChildren": 68.0, "nyko_code": "21204", "nyko": 21204.0, "nyko_name": "Långbro", "abbrev_name": "Låbro" }, "geometry": { "type": "Point", "coordinates": [ 17.979371057542803, 59.280416693306172 ] } },
{ "type": "Feature", "properties": { "address": "Repslagargatan 12A", "changed": "2024-02-14", "created": "2023-03-30", "isPublished": true, "name": "Bullerbyn Repslagargatan 12A", "orgform": "Kommunal", "numberOfChildren": 36.0, "nyko_code": "14101", "nyko": 14101.0, "nyko_name": "Mariatorget", "abbrev_name": "Mtrg" }, "geometry": { "type": "Point", "coordinates": [ 18.070066706641867, 59.317230636133289 ] } },
{ "type": "Feature", "properties": { "address": "Askersundsgatan 6", "changed": "2023-03-30", "created": "2023-03-30", "isPublished": true, "name": "Butterfly Förskola, enhet Fjärilarna", "orgform": "Fristående", "numberOfChildren": 28.0, "nyko_code": "21303", "nyko": 21303.0, "nyko_name": "Rågsved", "abbrev_name": "Rågsved" }, "geometry": { "type": "Point", "coordinates": [ 18.031152269138751, 59.259409174386512 ] } },
{ "type": "Feature", "properties": { "address": "Askersundsgatan 14", "changed": "2023-03-30", "created": "2023-03-30", "isPublished": true, "name": "Butterfly Förskola, enhet Pupporna", "orgform": "Fristående", "numberOfChildren": 19.0, "nyko_code": "21303", "nyko": 21303.0, "nyko_name": "Rågsved", "abbrev_name": "Rågsved" }, "geometry": { "type": "Point", "coordinates": [ 18.029609183369587, 59.258978653219884 ] } },
{ "type": "Feature", "properties": { "address": "Holmingegränd 6", "changed": "2023-12-18", "created": "2023-03-30", "isPublished": true, "name": "Bystugan, Holmingegränd 6", "orgform": "Kommunal", "numberOfChildren": 28.0, "nyko_code": "22408", "nyko": 22408.0, "nyko_name": "Tensta", "abbrev_name": "Tensta" }, "geometry": { "type": "Point", "coordinates": [ 17.909577333122353, 59.391176029845333 ] } },
{ "type": "Feature", "properties": { "address": "Båtklubbsgatan 11–13", "changed": "2024-01-15", "created": "2023-03-30", "isPublished": true, "name": "Båtklubben", "orgform": "Kommunal", "numberOfChildren": 82.0, "nyko_code": "14403", "nyko": 14403.0, "nyko_name": "Södra Hammarbyhamnen", "abbrev_name": "S Hbyh" }, "geometry": { "type": "Point", "coordinates": [ 18.104045255919235, 59.311094859356423 ] } },
{ "type": "Feature", "properties": { "address": "Ågesta Broväg 71", "changed": "2023-03-30", "created": "2023-03-30", "isPublished": true, "name": "Camilla Parkenbergs familjedaghem", "orgform": "Fristående", "numberOfChildren": 6.0, "nyko_code": "21607", "nyko": 21607.0, "nyko_name": "Larsboda", "abbrev_name": "Larsb" }, "geometry": { "type": "Point", "coordinates": [ 18.101686794881662, 59.238556190289195 ] } },
{ "type": "Feature", "properties": { "address": "Tydingevägen 5", "changed": "2024-02-12", "created": "2023-03-30", "isPublished": true, "name": "Cap Mini", "orgform": "Fristående (föräldrakooperativ)", "numberOfChildren": 15.0, "nyko_code": "21408", "nyko": 21408.0, "nyko_name": "Årsta", "abbrev_name": "Årsta" }, "geometry": { "type": "Point", "coordinates": [ 18.071365327745244, 59.300057643856157 ] } },
{ "type": "Feature", "properties": { "address": "Nybykroken 21", "changed": "2023-06-30", "created": "2023-03-30", "isPublished": true, "name": "Carina Dahlén Zaghloumis familjedaghem", "orgform": "Fristående", "numberOfChildren": 0.0, "nyko_code": "22405", "nyko": 22405.0, "nyko_name": "Rinkeby", "abbrev_name": "Rinkeby" }, "geometry": { "type": "Point", "coordinates": [ 17.920789664960665, 59.390366453450106 ] } },
{ "type": "Feature", "properties": { "address": "Täppgränd 87", "changed": "2023-03-30", "created": "2023-03-30", "isPublished": true, "name": "Carola Karlsson, familjedaghemmet Videungen", "orgform": "Fristående", "numberOfChildren": 5.0, "nyko_code": "21403", "nyko": 21403.0, "nyko_name": "Gamla Enskede", "abbrev_name": "G:la En" }, "geometry": { "type": "Point", "coordinates": [ 18.097829413786283, 59.286458786874221 ] } },
{ "type": "Feature", "properties": { "address": "Majrovägen 17", "changed": "2023-03-30", "created": "2023-03-30", "isPublished": true, "name": "Caroline Jernsäther, familjedaghemmet Skåptrollet", "orgform": "Fristående", "numberOfChildren": 0.0, "nyko_code": "21605", "nyko": 21605.0, "nyko_name": "Gubbängen", "abbrev_name": "Gubbäng" }, "geometry": { "type": "Point", "coordinates": [ 18.080891678742745, 59.26129082990883 ] } },
{ "type": "Feature", "properties": { "address": "Alstaviksvägen 10", "changed": "2024-01-23", "created": "2023-03-30", "isPublished": true, "name": "Centralvakten", "orgform": "Kommunal", "numberOfChildren": 71.0, "nyko_code": "14204", "nyko": 14204.0, "nyko_name": "Reimersholme-Långholmen", "abbrev_name": "Rei-Låh" }, "geometry": { "type": "Point", "coordinates": [ 18.028275887504584, 59.321276900681646 ] } },
{ "type": "Feature", "properties": { "address": "Nybykroken 27", "changed": "2023-06-30", "created": "2023-03-30", "isPublished": true, "name": "Christina Papaioannou familjedaghem", "orgform": "Fristående", "numberOfChildren": 0.0, "nyko_code": "22405", "nyko": 22405.0, "nyko_name": "Rinkeby", "abbrev_name": "Rinkeby" }, "geometry": { "type": "Point", "coordinates": [ 17.921933146063783, 59.39054667271715 ] } },
{ "type": "Feature", "properties": { "address": "Ulricehamnsvägen 12", "changed": "2024-02-08", "created": "2023-03-30", "isPublished": true, "name": "Cosmos", "orgform": "Fristående", "numberOfChildren": 42.0, "nyko_code": "21504", "nyko": 21504.0, "nyko_name": "Hammarbyhöjden", "abbrev_name": "Hbyh" }, "geometry": { "type": "Point", "coordinates": [ 18.105766770797718, 59.294414877750064 ] } },
{ "type": "Feature", "properties": { "address": "Västmannagatan 41", "changed": "2023-06-30", "created": "2023-03-30", "isPublished": true, "name": "Dagmamma Fia och barnen", "orgform": "Fristående", "numberOfChildren": 7.0, "nyko_code": "11301", "nyko": 11301.0, "nyko_name": "Gustav Vasa", "abbrev_name": "GV" }, "geometry": { "type": "Point", "coordinates": [ 18.048588081045381, 59.340417987593902 ] } },
{ "type": "Feature", "properties": { "address": "Hallonvägen 21", "changed": "2023-03-30", "created": "2023-03-30", "isPublished": true, "name": "Dagmammeriet", "orgform": "Fristående", "numberOfChildren": 6.0, "nyko_code": "22106", "nyko": 22106.0, "nyko_name": "Eneby", "abbrev_name": "Eneby" }, "geometry": { "type": "Point", "coordinates": [ 17.913547464288158, 59.35943768791423 ] } },
{ "type": "Feature", "properties": { "address": "Gubbängsvägen 16A", "changed": "2023-03-30", "created": "2023-03-30", "isPublished": true, "name": "Dbv Knoll", "orgform": "Fristående", "numberOfChildren": 0.0, "nyko_code": "21605", "nyko": 21605.0, "nyko_name": "Gubbängen", "abbrev_name": "Gubbäng" }, "geometry": { "type": "Point", "coordinates": [ 18.096538542703072, 59.26429633684824 ] } },
{ "type": "Feature", "properties": { "address": "Lemmings väg 76", "changed": "2023-03-30", "created": "2023-03-30", "isPublished": true, "name": "Dbv Tott", "orgform": "Fristående", "numberOfChildren": 0.0, "nyko_code": "21605", "nyko": 21605.0, "nyko_name": "Gubbängen", "abbrev_name": "Gubbäng" }, "geometry": { "type": "Point", "coordinates": [ 18.097148886535468, 59.263128912864708 ] } },
{ "type": "Feature", "properties": { "address": "Lingvägen 191", "changed": "2023-03-30", "created": "2023-03-30", "isPublished": true, "name": "Den röda tråden", "orgform": "Kommunal", "numberOfChildren": 0.0, "nyko_code": "21606", "nyko": 21606.0, "nyko_name": "Hökarängen", "abbrev_name": "Hökä" }, "geometry": { "type": "Point", "coordinates": [ 18.09156549085213, 59.253617658337113 ] } },
{ "type": "Feature", "properties": { "address": "Gudmundrågatan 11-13, Vällingby", "changed": "2023-10-09", "created": "2023-03-30", "isPublished": true, "name": "Dialogförskolan", "orgform": "Fristående", "numberOfChildren": 70.0, "nyko_code": "22304", "nyko": 22304.0, "nyko_name": "Råcksta", "abbrev_name": "Råck" }, "geometry": { "type": "Point", "coordinates": [ 17.8857893536143, 59.358105758227794 ] } },
{ "type": "Feature", "properties": { "address": "Rosendalsvägen 7", "changed": "2023-06-30", "created": "2023-03-30", "isPublished": true, "name": "Djurgårdens montessoriförskola", "orgform": "Fristående (föräldrakooperativ)", "numberOfChildren": 22.0, "nyko_code": "12302", "nyko": 12302.0, "nyko_name": "Djurgården", "abbrev_name": "Djurgården" }, "geometry": { "type": "Point", "coordinates": [ 18.098741569701325, 59.328800869683661 ] } },
{ "type": "Feature", "properties": { "address": "Tomtebogatan 25", "changed": "2023-06-30", "created": "2023-03-30", "isPublished": true, "name": "Drejaren", "orgform": "Fristående", "numberOfChildren": 24.0, "nyko_code": "11402", "nyko": 11402.0, "nyko_name": "Västra Matteus", "abbrev_name": "V Mat" }, "geometry": { "type": "Point", "coordinates": [ 18.031385385139114, 59.341311944584291 ] } },
{ "type": "Feature", "properties": { "address": "Tornbacken 11A", "changed": "2023-06-30", "created": "2023-03-30", "isPublished": true, "name": "Dvärgbjörkens förskola", "orgform": "Fristående (föräldrakooperativ)", "numberOfChildren": 18.0, "nyko_code": "22406", "nyko": 22406.0, "nyko_name": "Solhem", "abbrev_name": "Solh" }, "geometry": { "type": "Point", "coordinates": [ 17.89614850352179, 59.379972309743025 ] } },
{ "type": "Feature", "properties": { "address": "Carl Alberts gränd 5", "changed": "2024-03-01", "created": "2023-03-30", "isPublished": true, "name": "Egalia", "orgform": "Kommunal", "numberOfChildren": 60.0, "nyko_code": "14102", "nyko": 14102.0, "nyko_name": "Södra Station", "abbrev_name": "S Stn" }, "geometry": { "type": "Point", "coordinates": [ 18.067020603143032, 59.313102994015715 ] } },
{ "type": "Feature", "properties": { "address": "Havsörnsgränd 16", "changed": "2023-03-30", "created": "2023-03-30", "isPublished": true, "name": "Ejdern", "orgform": "Kommunal", "numberOfChildren": 65.0, "nyko_code": "21601", "nyko": 21601.0, "nyko_name": "Fagersjö", "abbrev_name": "Fager" }, "geometry": { "type": "Point", "coordinates": [ 18.062209566649056, 59.245771401326394 ] } },
{ "type": "Feature", "properties": { "address": "Hagsätravägen 115", "changed": "2023-03-30", "created": "2023-03-30", "isPublished": true, "name": "Ekbacken Hagsätravägen 115", "orgform": "Kommunal", "numberOfChildren": 42.0, "nyko_code": "21306", "nyko": 21306.0, "nyko_name": "Hagsätra", "abbrev_name": "Hags" }, "geometry": { "type": "Point", "coordinates": [ 18.023546166190371, 59.262705217558143 ] } },
{ "type": "Feature", "properties": { "address": "Svartlösavägen 128", "changed": "2023-03-30", "created": "2023-03-30", "isPublished": true, "name": "Ekbacken Svartlösavägen 128", "orgform": "Fristående", "numberOfChildren": 72.0, "nyko_code": "21204", "nyko": 21204.0, "nyko_name": "Långbro", "abbrev_name": "Låbro" }, "geometry": { "type": "Point", "coordinates": [ 17.9804253731612, 59.277248093143278 ] } },
{ "type": "Feature", "properties": { "address": "Vävar Johans gata 1–3", "changed": "2024-01-08", "created": "2023-03-30", "isPublished": true, "name": "Ekbacken Vävar Johans gata 1–3", "orgform": "Kommunal", "numberOfChildren": 83.0, "nyko_code": "14403", "nyko": 14403.0, "nyko_name": "Södra Hammarbyhamnen", "abbrev_name": "S Hbyh" }, "geometry": { "type": "Point", "coordinates": [ 18.112030106979521, 59.304607110444877 ] } },
{ "type": "Feature", "properties": { "address": "Sulvägen 52 A", "changed": "2023-11-28", "created": "2023-03-30", "isPublished": true, "name": "Eken Sulvägen 52 A", "orgform": "Kommunal", "numberOfChildren": 55.0, "nyko_code": "21206", "nyko": 21206.0, "nyko_name": "Solberga", "abbrev_name": "Solbga" }, "geometry": { "type": "Point", "coordinates": [ 18.00784190834489, 59.283918988579813 ] } },
{ "type": "Feature", "properties": { "address": "Petrejusvägen 42", "changed": "2023-12-15", "created": "2023-03-30", "isPublished": true, "name": "Eken, Petrejusvägen 42", "orgform": "Kommunal", "numberOfChildren": 36.0, "nyko_code": "21504", "nyko": 21504.0, "nyko_name": "Hammarbyhöjden", "abbrev_name": "Hbyh" }, "geometry": { "type": "Point", "coordinates": [ 18.099263958274829, 59.297095036089694 ] } },
{ "type": "Feature", "properties": { "address": "Ormängsgatan 43-45", "changed": "2023-03-30", "created": "2023-03-30", "isPublished": true, "name": "Ekorren", "orgform": "Fristående", "numberOfChildren": 48.0, "nyko_code": "22501", "nyko": 22501.0, "nyko_name": "Hässelby Gård", "abbrev_name": "Häb G" }, "geometry": { "type": "Point", "coordinates": [ 17.842245935150917, 59.364290099870956 ] } },
{ "type": "Feature", "properties": { "address": "Tomtebogatan 14", "changed": "2023-06-30", "created": "2023-03-30", "isPublished": true, "name": "Eldaren", "orgform": "Fristående", "numberOfChildren": 30.0, "nyko_code": "11402", "nyko": 11402.0, "nyko_name": "Västra Matteus", "abbrev_name": "V Mat" }, "geometry": { "type": "Point", "coordinates": [ 18.034214764600538, 59.34143690495786 ] } },
{ "type": "Feature", "properties": { "address": "Ellen Fries gata 10", "changed": "2024-01-19", "created": "2023-03-30", "isPublished": true, "name": "Ellen Fries", "orgform": "Kommunal", "numberOfChildren": 72.0, "nyko_code": "21201", "nyko": 21201.0, "nyko_name": "Fruängen", "abbrev_name": "Fruä" }, "geometry": { "type": "Point", "coordinates": [ 17.96989230897805, 59.287524360640994 ] } },
{ "type": "Feature", "properties": { "address": "Ellen Keys gata 83", "changed": "2024-01-19", "created": "2023-03-30", "isPublished": true, "name": "Ellen Key", "orgform": "Kommunal", "numberOfChildren": 53.0, "nyko_code": "21201", "nyko": 21201.0, "nyko_name": "Fruängen", "abbrev_name": "Fruä" }, "geometry": { "type": "Point", "coordinates": [ 17.966983331678499, 59.283870156642493 ] } },
{ "type": "Feature", "properties": { "address": "Swedenborgsgatan 14", "changed": "2023-03-30", "created": "2023-03-30", "isPublished": true, "name": "Engelska Franska Förskolan Södermalm", "orgform": "Fristående", "numberOfChildren": 84.0, "nyko_code": "14101", "nyko": 14101.0, "nyko_name": "Mariatorget", "abbrev_name": "Mtrg" }, "geometry": { "type": "Point", "coordinates": [ 18.064074855391926, 59.315267840771156 ] } },
{ "type": "Feature", "properties": { "address": "Frejgatan 61A", "changed": "2023-06-30", "created": "2023-03-30", "isPublished": true, "name": "Engelska Förskolan Frej", "orgform": "Fristående", "numberOfChildren": 35.0, "nyko_code": "11301", "nyko": 11301.0, "nyko_name": "Gustav Vasa", "abbrev_name": "GV" }, "geometry": { "type": "Point", "coordinates": [ 18.050053692977912, 59.345237855593048 ] } },
{ "type": "Feature", "properties": { "address": "Labradorgatan.14", "changed": "2023-06-30", "created": "2023-03-30", "isPublished": true, "name": "Engelska Förskolan, Norra Djurgårdsstaden", "orgform": "Fristående", "numberOfChildren": 80.0, "nyko_code": "12104", "nyko": 12104.0, "nyko_name": "Hjorthagen-Värtahamnen", "abbrev_name": "Hjo-Vä" }, "geometry": { "type": "Point", "coordinates": [ 18.093152418895009, 59.3598011141098 ] } },
{ "type": "Feature", "properties": { "address": "Döbelnsgatan 52", "changed": "2023-06-30", "created": "2023-03-30", "isPublished": true, "name": "Engelska Förskolan, Norrmalm", "orgform": "Fristående", "numberOfChildren": 60.0, "nyko_code": "11102", "nyko": 11102.0, "nyko_name": "Norra Johannes", "abbrev_name": "N Joh" }, "geometry": { "type": "Point", "coordinates": [ 18.056996654336768, 59.345728717356565 ] } },
{ "type": "Feature", "properties": { "address": "Rutger Fuchsgatan 9", "changed": "2024-02-14", "created": "2023-03-30", "isPublished": true, "name": "Engelsk-svenska förskolan Skanstull", "orgform": "Kommunal", "numberOfChildren": 42.0, "nyko_code": "14402", "nyko": 14402.0, "nyko_name": "Södra Sofia", "abbrev_name": "S Sofia" }, "geometry": { "type": "Point", "coordinates": [ 18.078418993971624, 59.306759135664052 ] } },
{ "type": "Feature", "properties": { "address": "Lundagatan 41", "changed": "2023-03-30", "created": "2023-03-30", "isPublished": true, "name": "Entill Crocodill", "orgform": "Fristående", "numberOfChildren": 26.0, "nyko_code": "14201", "nyko": 14201.0, "nyko_name": "Norra Högalid", "abbrev_name": "N Hög" }, "geometry": { "type": "Point", "coordinates": [ 18.046203268488199, 59.318255637797911 ] } },
{ "type": "Feature", "properties": { "address": "Ringvägen 58–66, hus F", "changed": "2023-11-01", "created": "2023-03-30", "isPublished": true, "name": "Eriksdalsvillan", "orgform": "Kommunal", "numberOfChildren": 52.0, "nyko_code": "14301", "nyko": 14301.0, "nyko_name": "Västra Katarina", "abbrev_name": "V Kat" }, "geometry": { "type": "Point", "coordinates": [ 18.062376989340816, 59.308634941008123 ] } },
{ "type": "Feature", "properties": { "address": "Wallingatan 32", "changed": "2023-06-30", "created": "2023-03-30", "isPublished": true, "name": "Estniska förskolan", "orgform": "Fristående", "numberOfChildren": 22.0, "nyko_code": "11201", "nyko": 11201.0, "nyko_name": "Södra Adolf Fredrik", "abbrev_name": "S AFr" }, "geometry": { "type": "Point", "coordinates": [ 18.053976355600806, 59.336322545868789 ] } },
{ "type": "Feature", "properties": { "address": "Fatburs Brunnsgata 17", "changed": "2023-03-30", "created": "2023-03-30", "isPublished": true, "name": "Eudora Internationella Förskola", "orgform": "Fristående", "numberOfChildren": 44.0, "nyko_code": "14102", "nyko": 14102.0, "nyko_name": "Södra Station", "abbrev_name": "S Stn" }, "geometry": { "type": "Point", "coordinates": [ 18.067040387736, 59.314234037927363 ] } },
{ "type": "Feature", "properties": { "address": "Skånegatan 118", "changed": "2023-12-11", "created": "2023-03-30", "isPublished": true, "name": "Eurenii", "orgform": "Kommunal", "numberOfChildren": 70.0, "nyko_code": "14402", "nyko": 14402.0, "nyko_name": "Södra Sofia", "abbrev_name": "S Sofia" }, "geometry": { "type": "Point", "coordinates": [ 18.094092993693863, 59.312107807367468 ] } },
{ "type": "Feature", "properties": { "address": "Neptunstigen 84", "changed": "2023-03-30", "created": "2023-03-30", "isPublished": true, "name": "Eva Lindbäck, familjedaghemmet Rävlyan", "orgform": "Fristående", "numberOfChildren": 0.0, "nyko_code": "22503", "nyko": 22503.0, "nyko_name": "Hässelby Villastad", "abbrev_name": "Häb Vst" }, "geometry": { "type": "Point", "coordinates": [ 17.812955105835613, 59.369655281991442 ] } },
{ "type": "Feature", "properties": { "address": "Bäverbäcksgränd 51", "changed": "2023-03-30", "created": "2023-03-30", "isPublished": true, "name": "Familjedaghem Jeanette Bergström", "orgform": "Fristående", "numberOfChildren": 5.0, "nyko_code": "21303", "nyko": 21303.0, "nyko_name": "Rågsved", "abbrev_name": "Rågsved" }, "geometry": { "type": "Point", "coordinates": [ 18.038174517409058, 59.252602967703645 ] } },
{ "type": "Feature", "properties": { "address": "Brantingsgatan 52", "changed": "2023-06-30", "created": "2023-03-30", "isPublished": true, "name": "Familjedaghem Marie Däumichen", "orgform": "Fristående", "numberOfChildren": 6.0, "nyko_code": "12303", "nyko": 12303.0, "nyko_name": "Gärdet", "abbrev_name": "Gärdet" }, "geometry": { "type": "Point", "coordinates": [ 18.099613011774256, 59.344455382185153 ] } },
{ "type": "Feature", "properties": { "address": "Vasaloppsvägen 78", "changed": "2023-03-30", "created": "2023-03-30", "isPublished": true, "name": "Familjedaghemmet Ankungen", "orgform": "Fristående", "numberOfChildren": 0.0, "nyko_code": "21207", "nyko": 21207.0, "nyko_name": "Västertorp", "abbrev_name": "Vtrp" }, "geometry": { "type": "Point", "coordinates": [ 17.963657145253606, 59.293707681826817 ] } },
{ "type": "Feature", "properties": { "address": "Mickel Bagares gränd 32", "changed": "2023-03-30", "created": "2023-03-30", "isPublished": true, "name": "Familjedaghemmet Bagarbarnen", "orgform": "Fristående", "numberOfChildren": 6.0, "nyko_code": "21608", "nyko": 21608.0, "nyko_name": "Sköndal", "abbrev_name": "Sköndal" }, "geometry": { "type": "Point", "coordinates": [ 18.110777789054797, 59.25956325780335 ] } },
{ "type": "Feature", "properties": { "address": "Ekshäradsgatan 37", "changed": "2023-03-30", "created": "2023-03-30", "isPublished": true, "name": "Familjedaghemmet Busungarna", "orgform": "Fristående", "numberOfChildren": 0.0, "nyko_code": "21603", "nyko": 21603.0, "nyko_name": "Farsta Strand", "abbrev_name": "Fa Str" }, "geometry": { "type": "Point", "coordinates": [ 18.090001150662133, 59.238663540705105 ] } },
{ "type": "Feature", "properties": { "address": "Ågesta Broväg 75", "changed": "2023-03-30", "created": "2023-03-30", "isPublished": true, "name": "Familjedaghemmet Daglyan", "orgform": "Fristående", "numberOfChildren": 6.0, "nyko_code": "21607", "nyko": 21607.0, "nyko_name": "Larsboda", "abbrev_name": "Larsb" }, "geometry": { "type": "Point", "coordinates": [ 18.10089836424951, 59.23854782724797 ] } },
{ "type": "Feature", "properties": { "address": "Gråhundsvägen 146", "changed": "2023-03-30", "created": "2023-03-30", "isPublished": true, "name": "Familjedaghemmet Druvan", "orgform": "Fristående", "numberOfChildren": 6.0, "nyko_code": "21608", "nyko": 21608.0, "nyko_name": "Sköndal", "abbrev_name": "Sköndal" }, "geometry": { "type": "Point", "coordinates": [ 18.119133445264769, 59.2626977243916 ] } },
{ "type": "Feature", "properties": { "address": "Öbackavägen 14", "changed": "2023-03-30", "created": "2023-03-30", "isPublished": true, "name": "Familjedaghemmet Ekorrarna", "orgform": "Fristående", "numberOfChildren": 10.0, "nyko_code": "22204", "nyko": 22204.0, "nyko_name": "Nockebyhov", "abbrev_name": "Nobyh" }, "geometry": { "type": "Point", "coordinates": [ 17.919253792170014, 59.333166907838034 ] } },
{ "type": "Feature", "properties": { "address": "Jomsborgsvägen 8", "changed": "2023-03-30", "created": "2023-03-30", "isPublished": true, "name": "Familjedaghemmet Ekorrungarna Elisabeth Brickstad", "orgform": "Fristående", "numberOfChildren": 6.0, "nyko_code": "22108", "nyko": 22108.0, "nyko_name": "Norra Ängby", "abbrev_name": "N Äby" }, "geometry": { "type": "Point", "coordinates": [ 17.905249852869584, 59.34636204097604 ] } },
{ "type": "Feature", "properties": { "address": null, "changed": "2023-03-30", "created": "2023-03-30", "isPublished": true, "name": "Familjedaghemmet Giraffen", "orgform": "Fristående", "numberOfChildren": 12.0, "nyko_code": "21304", "nyko": 21304.0, "nyko_name": "Stureby", "abbrev_name": "Stureby" }, "geometry": { "type": "Point", "coordinates": [ 18.05772044059961, 59.275082371909022 ] } },
{ "type": "Feature", "properties": { "address": "Backlöksvägen 8", "changed": "2023-03-30", "created": "2023-03-30", "isPublished": true, "name": "Familjedaghemmet Glada Krokodilen", "orgform": "Fristående", "numberOfChildren": 6.0, "nyko_code": "22503", "nyko": 22503.0, "nyko_name": "Hässelby Villastad", "abbrev_name": "Häb Vst" }, "geometry": { "type": "Point", "coordinates": [ 17.810635405092391, 59.391411087059467 ] } },
{ "type": "Feature", "properties": { "address": "Sköndalsvägen 110", "changed": "2023-03-30", "created": "2023-03-30", "isPublished": true, "name": "Familjedaghemmet Green Kids", "orgform": "Fristående", "numberOfChildren": 6.0, "nyko_code": "21608", "nyko": 21608.0, "nyko_name": "Sköndal", "abbrev_name": "Sköndal" }, "geometry": { "type": "Point", "coordinates": [ 18.117836676281403, 59.252725786878464 ] } },
{ "type": "Feature", "properties": { "address": "Olsmässgatan 16", "changed": "2023-03-30", "created": "2023-03-30", "isPublished": true, "name": "Familjedaghemmet Griseknoen", "orgform": "Fristående", "numberOfChildren": 0.0, "nyko_code": "21108", "nyko": 21108.0, "nyko_name": "Mälarhöjden", "abbrev_name": "Mälh" }, "geometry": { "type": "Point", "coordinates": [ 17.957884447604592, 59.293104508192229 ] } },
{ "type": "Feature", "properties": { "address": "Svartviksslingan 96", "changed": "2023-03-30", "created": "2023-03-30", "isPublished": true, "name": "Familjedaghemmet Grus Grus", "orgform": "Fristående", "numberOfChildren": 0.0, "nyko_code": "22208", "nyko": 22208.0, "nyko_name": "Traneberg", "abbrev_name": "Trbg" }, "geometry": { "type": "Point", "coordinates": [ 17.98910527994688, 59.339618693130419 ] } },
{ "type": "Feature", "properties": { "address": "Doroteavägen 7", "changed": "2023-03-30", "created": "2023-03-30", "isPublished": true, "name": "Familjedaghemmet Ilknur Aytekin", "orgform": "Fristående", "numberOfChildren": 5.0, "nyko_code": "21704", "nyko": 21704.0, "nyko_name": "Vårberg", "abbrev_name": "Vårbg" }, "geometry": { "type": "Point", "coordinates": [ 17.877559472354584, 59.280414632582897 ] } },
{ "type": "Feature", "properties": { "address": "Kusevägen 3", "changed": "2023-03-30", "created": "2023-03-30", "isPublished": true, "name": "Familjedaghemmet Imse Vimse", "orgform": "Fristående", "numberOfChildren": 6.0, "nyko_code": "21608", "nyko": 21608.0, "nyko_name": "Sköndal", "abbrev_name": "Sköndal" }, "geometry": { "type": "Point", "coordinates": [ 18.10124008955945, 59.259265816408295 ] } },
{ "type": "Feature", "properties": { "address": "Kexvägen 12", "changed": "2024-02-09", "created": "2023-03-30", "isPublished": true, "name": "Familjedaghemmet Kakmonstren", "orgform": "Fristående", "numberOfChildren": 6.0, "nyko_code": "21608", "nyko": 21608.0, "nyko_name": "Sköndal", "abbrev_name": "Sköndal" }, "geometry": { "type": "Point", "coordinates": [ 18.101368233056743, 59.25519029404348 ] } },
{ "type": "Feature", "properties": { "address": "Selmedalsvägen 54", "changed": "2023-03-30", "created": "2023-03-30", "isPublished": true, "name": "Familjedaghemmet Karusellen", "orgform": "Fristående", "numberOfChildren": 0.0, "nyko_code": "21103", "nyko": 21103.0, "nyko_name": "Hägersten", "abbrev_name": "Häg" }, "geometry": { "type": "Point", "coordinates": [ 17.973019131007625, 59.304939730321692 ] } },
{ "type": "Feature", "properties": { "address": "Norrholmsgränd 51", "changed": "2023-03-30", "created": "2023-03-30", "isPublished": true, "name": "Familjedaghemmet Kickis Krabater", "orgform": "Fristående", "numberOfChildren": 0.0, "nyko_code": "21704", "nyko": 21704.0, "nyko_name": "Vårberg", "abbrev_name": "Vårbg" }, "geometry": { "type": "Point", "coordinates": [ 17.889029126424795, 59.281205880738909 ] } },
{ "type": "Feature", "properties": { "address": "Skogsslingan 24", "changed": "2023-03-30", "created": "2023-03-30", "isPublished": true, "name": "Familjedaghemmet Leyla Ektas", "orgform": "Fristående", "numberOfChildren": 6.0, "nyko_code": "21704", "nyko": 21704.0, "nyko_name": "Vårberg", "abbrev_name": "Vårbg" }, "geometry": { "type": "Point", "coordinates": [ 17.878350220083291, 59.280029376647001 ] } },
{ "type": "Feature", "properties": { "address": "Svartviksslingan 43", "changed": "2023-09-04", "created": "2023-03-30", "isPublished": true, "name": "Familjedaghemmet Minnestjärnorna", "orgform": "Fristående", "numberOfChildren": 6.0, "nyko_code": "22208", "nyko": 22208.0, "nyko_name": "Traneberg", "abbrev_name": "Trbg" }, "geometry": { "type": "Point", "coordinates": [ 17.99045821051806, 59.340058651604984 ] } },
{ "type": "Feature", "properties": { "address": "Gamla Bromstensvägen 85", "changed": "2023-03-30", "created": "2023-03-30", "isPublished": true, "name": "Familjedaghemmet Mumlan", "orgform": "Fristående", "numberOfChildren": 6.0, "nyko_code": "22105", "nyko": 22105.0, "nyko_name": "Bällsta", "abbrev_name": "Bäll" }, "geometry": { "type": "Point", "coordinates": [ 17.927562386752925, 59.36686085562161 ] } },
{ "type": "Feature", "properties": { "address": "Söderberga Allé 2", "changed": "2023-03-30", "created": "2023-03-30", "isPublished": true, "name": "Familjedaghemmet Myrboet", "orgform": "Fristående", "numberOfChildren": 6.0, "nyko_code": "22102", "nyko": 22102.0, "nyko_name": "Beckomberga", "abbrev_name": "Bebga" }, "geometry": { "type": "Point", "coordinates": [ 17.894594254981964, 59.359244217611689 ] } },
{ "type": "Feature", "properties": { "address": "Pungmakargränd 3", "changed": "2023-03-30", "created": "2023-03-30", "isPublished": true, "name": "Familjedaghemmet Månstrålen", "orgform": "Fristående", "numberOfChildren": 12.0, "nyko_code": "21108", "nyko": 21108.0, "nyko_name": "Mälarhöjden", "abbrev_name": "Mälh" }, "geometry": { "type": "Point", "coordinates": [ 17.948176478153972, 59.29563242194137 ] } },
{ "type": "Feature", "properties": { "address": "Pepparvägen 16", "changed": "2023-03-30", "created": "2023-03-30", "isPublished": true, "name": "Familjedaghemmet Puzzlet", "orgform": "Fristående", "numberOfChildren": 6.0, "nyko_code": "21606", "nyko": 21606.0, "nyko_name": "Hökarängen", "abbrev_name": "Hökä" }, "geometry": { "type": "Point", "coordinates": [ 18.081297795570119, 59.255141538738151 ] } },
{ "type": "Feature", "properties": { "address": "Enbuskegränd 8", "changed": "2023-03-30", "created": "2023-03-30", "isPublished": true, "name": "Familjedaghemmet Renates Hus", "orgform": "Fristående", "numberOfChildren": 0.0, "nyko_code": "22503", "nyko": 22503.0, "nyko_name": "Hässelby Villastad", "abbrev_name": "Häb Vst" }, "geometry": { "type": "Point", "coordinates": [ 17.805772956405477, 59.389231620071612 ] } },
{ "type": "Feature", "properties": { "address": "Dalkärrsleden 77", "changed": "2023-03-30", "created": "2023-03-30", "isPublished": true, "name": "Familjedaghemmet Rövarkulan", "orgform": "Fristående", "numberOfChildren": 6.0, "nyko_code": "22303", "nyko": 22303.0, "nyko_name": "Nälsta", "abbrev_name": "Näl" }, "geometry": { "type": "Point", "coordinates": [ 17.878750759554976, 59.374553427547966 ] } },
{ "type": "Feature", "properties": { "address": "Tegnebyvägen 53", "changed": "2023-03-30", "created": "2023-03-30", "isPublished": true, "name": "Familjedaghemmet Skogsharen", "orgform": "Fristående", "numberOfChildren": 8.0, "nyko_code": "22108", "nyko": 22108.0, "nyko_name": "Norra Ängby", "abbrev_name": "N Äby" }, "geometry": { "type": "Point", "coordinates": [ 17.905747963434219, 59.344199046463423 ] } },
{ "type": "Feature", "properties": { "address": "Tellusborgsvägen 92", "changed": "2023-03-30", "created": "2023-03-30", "isPublished": true, "name": "Familjedaghemmet Skogskatten", "orgform": "Fristående", "numberOfChildren": 0.0, "nyko_code": "21109", "nyko": 21109.0, "nyko_name": "Västberga", "abbrev_name": "Vbga" }, "geometry": { "type": "Point", "coordinates": [ 18.000912653027104, 59.298685807166933 ] } },
{ "type": "Feature", "properties": { "address": "Kexvägen 27", "changed": "2023-03-30", "created": "2023-03-30", "isPublished": true, "name": "Familjedaghemmet Småkexen", "orgform": "Fristående", "numberOfChildren": 6.0, "nyko_code": "21608", "nyko": 21608.0, "nyko_name": "Sköndal", "abbrev_name": "Sköndal" }, "geometry": { "type": "Point", "coordinates": [ 18.10187616142748, 59.255055246956161 ] } },
{ "type": "Feature", "properties": { "address": "Idholmsvägen 62", "changed": "2023-03-30", "created": "2023-03-30", "isPublished": true, "name": "Familjedaghemmet Snövit", "orgform": "Fristående", "numberOfChildren": 0.0, "nyko_code": "21703", "nyko": 21703.0, "nyko_name": "Skärholmen", "abbrev_name": "Skhlm" }, "geometry": { "type": "Point", "coordinates": [ 17.899029523138392, 59.274795696393561 ] } },
{ "type": "Feature", "properties": { "address": "Nipfjällsvägen 12", "changed": "2023-03-30", "created": "2023-03-30", "isPublished": true, "name": "Familjedaghemmet Sussie Lindqvist", "orgform": "Fristående", "numberOfChildren": 5.0, "nyko_code": "22208", "nyko": 22208.0, "nyko_name": "Traneberg", "abbrev_name": "Trbg" }, "geometry": { "type": "Point", "coordinates": [ 17.97566299384135, 59.339069305540995 ] } },
{ "type": "Feature", "properties": { "address": "Polhemsgatan 29", "changed": "2023-03-30", "created": "2023-03-30", "isPublished": true, "name": "Familjedaghemmet Sångfågeln", "orgform": "Fristående", "numberOfChildren": 4.0, "nyko_code": "13101", "nyko": 13101.0, "nyko_name": "Kungsholm", "abbrev_name": "Kun" }, "geometry": { "type": "Point", "coordinates": [ 18.03794899679211, 59.333518523904637 ] } },
{ "type": "Feature", "properties": { "address": "Ugglemossvägen 45", "changed": "2023-03-30", "created": "2023-03-30", "isPublished": true, "name": "Familjedaghemmet Ugglan", "orgform": "Fristående", "numberOfChildren": 12.0, "nyko_code": "21108", "nyko": 21108.0, "nyko_name": "Mälarhöjden", "abbrev_name": "Mälh" }, "geometry": { "type": "Point", "coordinates": [ 17.948070825938029, 59.295865772600052 ] } },
{ "type": "Feature", "properties": { "address": "Stamgatan 21", "changed": "2023-03-30", "created": "2023-03-30", "isPublished": true, "name": "Familjedaghemmet Vildbasar'n", "orgform": "Fristående", "numberOfChildren": 0.0, "nyko_code": "21210", "nyko": 21210.0, "nyko_name": "Östberga", "abbrev_name": "Öbga" }, "geometry": { "type": "Point", "coordinates": [ 18.040102667170455, 59.282566551932206 ] } },
{ "type": "Feature", "properties": { "address": "Vidholmsbackarna 69", "changed": "2023-03-30", "created": "2023-03-30", "isPublished": true, "name": "Familjedaghemmet Villastaden, Madeleine Gjörling", "orgform": "Fristående", "numberOfChildren": 6.0, "nyko_code": "22503", "nyko": 22503.0, "nyko_name": "Hässelby Villastad", "abbrev_name": "Häb Vst" }, "geometry": { "type": "Point", "coordinates": [ 17.803192814512141, 59.378958587766455 ] } },
{ "type": "Feature", "properties": { "address": "Mårdvägen 8", "changed": "2023-03-30", "created": "2023-03-30", "isPublished": true, "name": "Familjedaghemmet Åttan", "orgform": "Fristående", "numberOfChildren": 0.0, "nyko_code": "22211", "nyko": 22211.0, "nyko_name": "Äppelviken", "abbrev_name": "Äppv" }, "geometry": { "type": "Point", "coordinates": [ 17.969907518523986, 59.329920960545884 ] } },
{ "type": "Feature", "properties": { "address": "Vantörsvägen 225", "changed": "2023-03-30", "created": "2023-03-30", "isPublished": true, "name": "Fantasia", "orgform": "Fristående", "numberOfChildren": 72.0, "nyko_code": "21202", "nyko": 21202.0, "nyko_name": "Herrängen", "abbrev_name": "Herrä" }, "geometry": { "type": "Point", "coordinates": [ 17.962634715056328, 59.281912069735839 ] } },
{ "type": "Feature", "properties": { "address": "Västfjordsgatan 31", "changed": "2023-06-30", "created": "2023-03-30", "isPublished": true, "name": "Fatiha familjedaghem", "orgform": "Fristående", "numberOfChildren": 6.0, "nyko_code": "22603", "nyko": 22603.0, "nyko_name": "Kista", "abbrev_name": "Kista" }, "geometry": { "type": "Point", "coordinates": [ 17.937360762290396, 59.413014184872466 ] } },
{ "type": "Feature", "properties": { "address": "Fastlagsvägen 68", "changed": "2024-02-08", "created": "2023-03-30", "isPublished": true, "name": "Fiberpennan", "orgform": "Kommunal", "numberOfChildren": 96.0, "nyko_code": "21107", "nyko": 21107.0, "nyko_name": "Midsommarkransen", "abbrev_name": "Midskr" }, "geometry": { "type": "Point", "coordinates": [ 17.991240954564564, 59.302913510879009 ] } },
{ "type": "Feature", "properties": { "address": "Dalens Allé 10", "changed": "2023-03-30", "created": "2023-03-30", "isPublished": true, "name": "Filosofiska Dalens Allé 10", "orgform": "Fristående", "numberOfChildren": 40.0, "nyko_code": "21403", "nyko": 21403.0, "nyko_name": "Gamla Enskede", "abbrev_name": "G:la En" }, "geometry": { "type": "Point", "coordinates": [ 18.093878346401041, 59.285187008568954 ] } },
{ "type": "Feature", "properties": { "address": "Varmfrontsgatan 13", "changed": "2023-03-30", "created": "2023-03-30", "isPublished": true, "name": "Filosofiska Varmfrontsgatan 13", "orgform": "Fristående", "numberOfChildren": 40.0, "nyko_code": "21507", "nyko": 21507.0, "nyko_name": "Skarpnäcks Gård", "abbrev_name": "Skp G" }, "geometry": { "type": "Point", "coordinates": [ 18.131958631325649, 59.265001345069578 ] } },
{ "type": "Feature", "properties": { "address": "Fatbursgatan 14 B", "changed": "2023-12-04", "created": "2023-03-30", "isPublished": true, "name": "Finska förskolan", "orgform": "Kommunal", "numberOfChildren": 45.0, "nyko_code": "14101", "nyko": 14101.0, "nyko_name": "Mariatorget", "abbrev_name": "Mtrg" }, "geometry": { "type": "Point", "coordinates": [ 18.063353210570202, 59.314352578550029 ] } },
{ "type": "Feature", "properties": { "address": "Stenkilsgatan 6", "changed": "2023-11-29", "created": "2023-03-30", "isPublished": true, "name": "Flyttfågeln", "orgform": "Kommunal", "numberOfChildren": 75.0, "nyko_code": "21101", "nyko": 21101.0, "nyko_name": "Aspudden", "abbrev_name": "Aspu" }, "geometry": { "type": "Point", "coordinates": [ 17.987974282665775, 59.307949138821968 ] } },
{ "type": "Feature", "properties": { "address": "Polhemsgatan 9", "changed": "2023-09-06", "created": "2023-03-30", "isPublished": true, "name": "Fredric Eens Minne", "orgform": "Fristående", "numberOfChildren": 50.0, "nyko_code": "13101", "nyko": 13101.0, "nyko_name": "Kungsholm", "abbrev_name": "Kun" }, "geometry": { "type": "Point", "coordinates": [ 18.035554871046092, 59.328977042632602 ] } },
{ "type": "Feature", "properties": { "address": "Kämpingebacken 3", "changed": "2023-11-07", "created": "2023-03-30", "isPublished": true, "name": "Fredsduvan Kämpingebacken 3", "orgform": "Kommunal", "numberOfChildren": 64.0, "nyko_code": "22408", "nyko": 22408.0, "nyko_name": "Tensta", "abbrev_name": "Tensta" }, "geometry": { "type": "Point", "coordinates": [ 17.907315721444096, 59.394459847034767 ] } },
{ "type": "Feature", "properties": { "address": "Stadsbudsvägen 16", "changed": "2023-10-09", "created": "2023-03-30", "isPublished": true, "name": "Frida", "orgform": "Kommunal", "numberOfChildren": 51.0, "nyko_code": "21606", "nyko": 21606.0, "nyko_name": "Hökarängen", "abbrev_name": "Hökä" }, "geometry": { "type": "Point", "coordinates": [ 18.073639456236233, 59.25591809254891 ] } },
{ "type": "Feature", "properties": { "address": "Älvdalsvägen 41-43", "changed": "2023-03-30", "created": "2023-03-30", "isPublished": true, "name": "Frilufts förskolor Dungen", "orgform": "Fristående", "numberOfChildren": 52.0, "nyko_code": "22503", "nyko": 22503.0, "nyko_name": "Hässelby Villastad", "abbrev_name": "Häb Vst" }, "geometry": { "type": "Point", "coordinates": [ 17.811256194972263, 59.38104408304239 ] } },
{ "type": "Feature", "properties": { "address": "Älvdalsvägen 67–69", "changed": "2023-03-30", "created": "2023-03-30", "isPublished": true, "name": "Frilufts förskolor Gläntan", "orgform": "Fristående", "numberOfChildren": 52.0, "nyko_code": "22503", "nyko": 22503.0, "nyko_name": "Hässelby Villastad", "abbrev_name": "Häb Vst" }, "geometry": { "type": "Point", "coordinates": [ 17.813048652939912, 59.381423678312267 ] } },
{ "type": "Feature", "properties": { "address": "Riddersviksvägen 129", "changed": "2023-03-30", "created": "2023-03-30", "isPublished": true, "name": "Frilufts förskolor Riddersborg", "orgform": "Fristående", "numberOfChildren": 23.0, "nyko_code": "22503", "nyko": 22503.0, "nyko_name": "Hässelby Villastad", "abbrev_name": "Häb Vst" }, "geometry": { "type": "Point", "coordinates": [ 17.810232873683244, 59.378412470064127 ] } },
{ "type": "Feature", "properties": { "address": "Brunbärsvägen 7", "changed": "2023-06-30", "created": "2023-03-30", "isPublished": true, "name": "Futuraskolan International Preschool Brunbärsvägen", "orgform": "Fristående", "numberOfChildren": 120.0, "nyko_code": "12102", "nyko": 12102.0, "nyko_name": "Tekniska Högskolan", "abbrev_name": "Tekn H" }, "geometry": { "type": "Point", "coordinates": [ 18.062051549258072, 59.351641970096402 ] } },
{ "type": "Feature", "properties": { "address": "Djurklouvägen 4", "changed": "2023-03-30", "created": "2023-03-30", "isPublished": true, "name": "Fyra Elementen Djurkloun", "orgform": "Fristående", "numberOfChildren": 40.0, "nyko_code": "22206", "nyko": 22206.0, "nyko_name": "Smedslätten", "abbrev_name": "Smedsl" }, "geometry": { "type": "Point", "coordinates": [ 17.965756355929631, 59.317747661912321 ] } },
{ "type": "Feature", "properties": { "address": "Grävlingsvägen 11", "changed": "2023-03-30", "created": "2023-03-30", "isPublished": true, "name": "Fyra Elementen Grävlingen", "orgform": "Fristående", "numberOfChildren": 46.0, "nyko_code": "22211", "nyko": 22211.0, "nyko_name": "Äppelviken", "abbrev_name": "Äppv" }, "geometry": { "type": "Point", "coordinates": [ 17.971328943047546, 59.331716599622496 ] } },
{ "type": "Feature", "properties": { "address": "Tegelviksgatan 45", "changed": "2023-03-30", "created": "2023-03-30", "isPublished": true, "name": "Fyra Elementen Tegelviken", "orgform": "Fristående", "numberOfChildren": 22.0, "nyko_code": "14402", "nyko": 14402.0, "nyko_name": "Södra Sofia", "abbrev_name": "S Sofia" }, "geometry": { "type": "Point", "coordinates": [ 18.098779107238599, 59.311466999186251 ] } },
{ "type": "Feature", "properties": { "address": "Kanslersvägen 38", "changed": "2024-01-22", "created": "2023-03-30", "isPublished": true, "name": "Fågelboet", "orgform": "Kommunal", "numberOfChildren": 68.0, "nyko_code": "21507", "nyko": 21507.0, "nyko_name": "Skarpnäcks Gård", "abbrev_name": "Skp G" }, "geometry": { "type": "Point", "coordinates": [ 18.116475324405751, 59.274971261901783 ] } },
{ "type": "Feature", "properties": { "address": "Gröndalsvägen 143", "changed": "2023-10-09", "created": "2023-03-30", "isPublished": true, "name": "Förskola Matrosen", "orgform": "Fristående (föräldrakooperativ)", "numberOfChildren": 23.0, "nyko_code": "21102", "nyko": 21102.0, "nyko_name": "Gröndal", "abbrev_name": "Grön" }, "geometry": { "type": "Point", "coordinates": [ 17.988990572046152, 59.313972541099147 ] } },
{ "type": "Feature", "properties": { "address": "Ormängsgatan 71", "changed": "2023-09-08", "created": "2023-03-30", "isPublished": true, "name": "Förskola och allmän förskola Kastanjen", "orgform": "Kommunal", "numberOfChildren": 21.0, "nyko_code": "22501", "nyko": 22501.0, "nyko_name": "Hässelby Gård", "abbrev_name": "Häb G" }, "geometry": { "type": "Point", "coordinates": [ 17.845873006701886, 59.363280084135276 ] } },
{ "type": "Feature", "properties": { "address": "Bälingevägen 63", "changed": "2024-02-16", "created": "2023-03-30", "isPublished": true, "name": "Förskolan 44:an", "orgform": "Kommunal", "numberOfChildren": 50.0, "nyko_code": "21302", "nyko": 21302.0, "nyko_name": "Högdalen", "abbrev_name": "Högd" }, "geometry": { "type": "Point", "coordinates": [ 18.032122766259096, 59.26610554791106 ] } },
{ "type": "Feature", "properties": { "address": "Björksätravägen 51", "changed": "2024-02-01", "created": "2023-03-30", "isPublished": true, "name": "Förskolan 51:an", "orgform": "Fristående", "numberOfChildren": 45.0, "nyko_code": "21702", "nyko": 21702.0, "nyko_name": "Sätra", "abbrev_name": "Sätra" }, "geometry": { "type": "Point", "coordinates": [ 17.913611803587141, 59.285650001435606 ] } },
{ "type": "Feature", "properties": { "address": "Sandhamnsgatan 75 B (77)", "changed": "2024-01-08", "created": "2023-03-30", "isPublished": true, "name": "Förskolan 79&Park", "orgform": "Kommunal", "numberOfChildren": 72.0, "nyko_code": "12303", "nyko": 12303.0, "nyko_name": "Gärdet", "abbrev_name": "Gärdet" }, "geometry": { "type": "Point", "coordinates": [ 18.11204119096401, 59.340001886134829 ] } },
{ "type": "Feature", "properties": { "address": "Abiskovägen 8", "changed": "2024-01-15", "created": "2023-03-30", "isPublished": true, "name": "Förskolan Abisko", "orgform": "Kommunal", "numberOfChildren": 36.0, "nyko_code": "22306", "nyko": 22306.0, "nyko_name": "Vällingby", "abbrev_name": "Vby" }, "geometry": { "type": "Point", "coordinates": [ 17.863638354316738, 59.366387800820959 ] } },
{ "type": "Feature", "properties": { "address": "Torneågatan 110", "changed": "2023-06-30", "created": "2023-03-30", "isPublished": true, "name": "Förskolan Akalla Hill", "orgform": "Kommunal", "numberOfChildren": 82.0, "nyko_code": "22601", "nyko": 22601.0, "nyko_name": "Akalla", "abbrev_name": "Akalla" }, "geometry": { "type": "Point", "coordinates": [ 17.910819989888399, 59.413887426867504 ] } },
{ "type": "Feature", "properties": { "address": "Vikstensvägen 28", "changed": "2023-12-05", "created": "2023-03-30", "isPublished": true, "name": "Förskolan Ankaret", "orgform": "Kommunal", "numberOfChildren": 66.0, "nyko_code": "21505", "nyko": 21505.0, "nyko_name": "Kärrtorp", "abbrev_name": "Kärrt" }, "geometry": { "type": "Point", "coordinates": [ 18.119311953100453, 59.283667090788832 ] } },
{ "type": "Feature", "properties": { "address": "Ankarstocksvägen 12–14", "changed": "2023-09-20", "created": "2023-03-30", "isPublished": true, "name": "Förskolan Ankarstocksvägen 12–14", "orgform": "Kommunal", "numberOfChildren": 35.0, "nyko_code": "22105", "nyko": 22105.0, "nyko_name": "Bällsta", "abbrev_name": "Bäll" }, "geometry": { "type": "Point", "coordinates": [ 17.929725507651074, 59.366853062254187 ] } },
{ "type": "Feature", "properties": { "address": "Gasverksvägen 10", "changed": "2024-01-12", "created": "2023-03-30", "isPublished": true, "name": "Förskolan Anna", "orgform": "Kommunal", "numberOfChildren": 64.0, "nyko_code": "12104", "nyko": 12104.0, "nyko_name": "Hjorthagen-Värtahamnen", "abbrev_name": "Hjo-Vä" }, "geometry": { "type": "Point", "coordinates": [ 18.092827257162842, 59.356623643443683 ] } },
{ "type": "Feature", "properties": { "address": "Aprikosgatan 64", "changed": "2024-02-05", "created": "2023-03-30", "isPublished": true, "name": "Förskolan Aprikos", "orgform": "Kommunal", "numberOfChildren": 28.0, "nyko_code": "22502", "nyko": 22502.0, "nyko_name": "Hässelby Strand", "abbrev_name": "Häb Str" }, "geometry": { "type": "Point", "coordinates": [ 17.836424408490306, 59.360826951750497 ] } },
{ "type": "Feature", "properties": { "address": "Adlerbethsgatan 23", "changed": "2023-03-30", "created": "2023-03-30", "isPublished": true, "name": "Förskolan Asterix", "orgform": "Fristående", "numberOfChildren": 23.0, "nyko_code": "13205", "nyko": 13205.0, "nyko_name": "Fredhäll", "abbrev_name": "Freh" }, "geometry": { "type": "Point", "coordinates": [ 18.003144648759903, 59.331369627355151 ] } },
{ "type": "Feature", "properties": { "address": "Multrågatan 34", "changed": "2023-03-30", "created": "2023-03-30", "isPublished": true, "name": "Förskolan Astronauterna", "orgform": "Fristående", "numberOfChildren": 14.0, "nyko_code": "22304", "nyko": 22304.0, "nyko_name": "Råcksta", "abbrev_name": "Råck" }, "geometry": { "type": "Point", "coordinates": [ 17.886760768905702, 59.356778073661893 ] } },
{ "type": "Feature", "properties": { "address": "Grafikvägen 5A", "changed": "2023-03-30", "created": "2023-03-30", "isPublished": true, "name": "Förskolan Backstugan", "orgform": "Fristående", "numberOfChildren": 110.0, "nyko_code": "21406", "nyko": 21406.0, "nyko_name": "Johanneshov", "abbrev_name": "Johv" }, "geometry": { "type": "Point", "coordinates": [ 18.078238261768856, 59.296858013399593 ] } },
{ "type": "Feature", "properties": { "address": "Saimagatan 55", "changed": "2023-06-30", "created": "2023-03-30", "isPublished": true, "name": "Förskolan Barnkullen", "orgform": "Kommunal", "numberOfChildren": 80.0, "nyko_code": "22601", "nyko": 22601.0, "nyko_name": "Akalla", "abbrev_name": "Akalla" }, "geometry": { "type": "Point", "coordinates": [ 17.916096987226545, 59.41638638600881 ] } },
{ "type": "Feature", "properties": { "address": "Beckombergavägen 76", "changed": "2024-02-15", "created": "2023-03-30", "isPublished": true, "name": "Förskolan Beckombergavägen 76", "orgform": "Kommunal", "numberOfChildren": 63.0, "nyko_code": "22108", "nyko": 22108.0, "nyko_name": "Norra Ängby", "abbrev_name": "N Äby" }, "geometry": { "type": "Point", "coordinates": [ 17.916763689528562, 59.345624842675022 ] } },
{ "type": "Feature", "properties": { "address": "Bredbyplan 34", "changed": "2024-01-12", "created": "2023-03-30", "isPublished": true, "name": "Förskolan Bergsgården", "orgform": "Kommunal", "numberOfChildren": 96.0, "nyko_code": "22405", "nyko": 22405.0, "nyko_name": "Rinkeby", "abbrev_name": "Rinkeby" }, "geometry": { "type": "Point", "coordinates": [ 17.921743824522345, 59.388697397144689 ] } },
{ "type": "Feature", "properties": { "address": "Bergviksvägen 89A", "changed": "2023-09-20", "created": "2023-03-30", "isPublished": true, "name": "Förskolan Bergviksvägen 89", "orgform": "Kommunal", "numberOfChildren": 35.0, "nyko_code": "22210", "nyko": 22210.0, "nyko_name": "Ålsten", "abbrev_name": "Ålst" }, "geometry": { "type": "Point", "coordinates": [ 17.957531670798591, 59.322727259360285 ] } },
{ "type": "Feature", "properties": { "address": "Bigarråvägen 6", "changed": "2024-01-08", "created": "2023-03-30", "isPublished": true, "name": "Förskolan Bigarrågården", "orgform": "Kommunal", "numberOfChildren": 36.0, "nyko_code": "12102", "nyko": 12102.0, "nyko_name": "Tekniska Högskolan", "abbrev_name": "Tekn H" }, "geometry": { "type": "Point", "coordinates": [ 18.063701995533819, 59.350617845686941 ] } },
{ "type": "Feature", "properties": { "address": "Hägerstensvägen 301", "changed": "2023-03-30", "created": "2023-03-30", "isPublished": true, "name": "Förskolan Bild & Tanke", "orgform": "Fristående", "numberOfChildren": 24.0, "nyko_code": "21103", "nyko": 21103.0, "nyko_name": "Hägersten", "abbrev_name": "Häg" }, "geometry": { "type": "Point", "coordinates": [ 17.964088792145731, 59.30041335213275 ] } },
{ "type": "Feature", "properties": { "address": "Vinstavägen 50", "changed": "2023-03-30", "created": "2023-03-30", "isPublished": true, "name": "Förskolan Björkbacken", "orgform": "Fristående", "numberOfChildren": 68.0, "nyko_code": "22303", "nyko": 22303.0, "nyko_name": "Nälsta", "abbrev_name": "Näl" }, "geometry": { "type": "Point", "coordinates": [ 17.874098278556222, 59.376891898308799 ] } },
{ "type": "Feature", "properties": { "address": "Björksätravägen 53", "changed": "2024-01-23", "created": "2023-03-30", "isPublished": true, "name": "Förskolan Björksätravägen 53", "orgform": "Kommunal", "numberOfChildren": 68.0, "nyko_code": "21702", "nyko": 21702.0, "nyko_name": "Sätra", "abbrev_name": "Sätra" }, "geometry": { "type": "Point", "coordinates": [ 17.912857995591342, 59.285416106118667 ] } },
{ "type": "Feature", "properties": { "address": "Ivarskärrsvägen 4 B", "changed": "2024-02-12", "created": "2023-03-30", "isPublished": true, "name": "Förskolan Björnen", "orgform": "Kommunal", "numberOfChildren": 35.0, "nyko_code": "22305", "nyko": 22305.0, "nyko_name": "Vinsta", "abbrev_name": "Vin" }, "geometry": { "type": "Point", "coordinates": [ 17.858119708971071, 59.378221983261085 ] } },
{ "type": "Feature", "properties": { "address": "Hårdvallsgatan 24", "changed": "2024-02-21", "created": "2023-03-30", "isPublished": true, "name": "Förskolan Björnlandet", "orgform": "Kommunal", "numberOfChildren": 74.0, "nyko_code": "12104", "nyko": 12104.0, "nyko_name": "Hjorthagen-Värtahamnen", "abbrev_name": "Hjo-Vä" }, "geometry": { "type": "Point", "coordinates": [ 18.088850855266656, 59.355432529945688 ] } },
{ "type": "Feature", "properties": { "address": "Björnsonsgatan 4/Grundtvigsgatan 21", "changed": "2023-09-20", "created": "2023-03-30", "isPublished": true, "name": "Förskolan Björnsonsgatan 4", "orgform": "Kommunal", "numberOfChildren": 54.0, "nyko_code": "22103", "nyko": 22103.0, "nyko_name": "Blackeberg", "abbrev_name": "Blabg" }, "geometry": { "type": "Point", "coordinates": [ 17.886944452186654, 59.343834012778011 ] } },
{ "type": "Feature", "properties": { "address": "Blomsterkungsvägen 235", "changed": "2023-03-30", "created": "2023-03-30", "isPublished": true, "name": "Förskolan Blomsterkungen", "orgform": "Kommunal", "numberOfChildren": 123.0, "nyko_code": "22503", "nyko": 22503.0, "nyko_name": "Hässelby Villastad", "abbrev_name": "Häb Vst" }, "geometry": { "type": "Point", "coordinates": [ 17.799378913944029, 59.384293826286161 ] } },
{ "type": "Feature", "properties": { "address": "Nidarosgatan 20", "changed": "2023-06-30", "created": "2023-03-30", "isPublished": true, "name": "Förskolan Blomsterängen", "orgform": "Kommunal", "numberOfChildren": 58.0, "nyko_code": "22602", "nyko": 22602.0, "nyko_name": "Husby", "abbrev_name": "Husby" }, "geometry": { "type": "Point", "coordinates": [ 17.932525817153831, 59.409071099051566 ] } },
{ "type": "Feature", "properties": { "address": "Nykvarnsvägen 10", "changed": "2023-12-28", "created": "2023-03-30", "isPublished": true, "name": "Förskolan Blå kullen", "orgform": "Kommunal", "numberOfChildren": 70.0, "nyko_code": "21304", "nyko": 21304.0, "nyko_name": "Stureby", "abbrev_name": "Stureby" }, "geometry": { "type": "Point", "coordinates": [ 18.055881947722199, 59.276968274743794 ] } },
{ "type": "Feature", "properties": { "address": "Västmannagatan 72", "changed": "2024-02-12", "created": "2023-03-30", "isPublished": true, "name": "Förskolan Blåklinten", "orgform": "Kommunal", "numberOfChildren": 40.0, "nyko_code": "11301", "nyko": 11301.0, "nyko_name": "Gustav Vasa", "abbrev_name": "GV" }, "geometry": { "type": "Point", "coordinates": [ 18.045412424185844, 59.3441444123577 ] } },
{ "type": "Feature", "properties": { "address": "Maltesholmsvägen 91, 165 55 Hässelby", "changed": "2023-10-30", "created": "2023-03-30", "isPublished": true, "name": "Förskolan Bokkammaren", "orgform": "Kommunal", "numberOfChildren": 80.0, "nyko_code": "22501", "nyko": 22501.0, "nyko_name": "Hässelby Gård", "abbrev_name": "Häb G" }, "geometry": { "type": "Point", "coordinates": [ 17.84236536561481, 59.365080181733148 ] } },
{ "type": "Feature", "properties": { "address": "Blecktornsgränd 10", "changed": "2023-03-30", "created": "2023-03-30", "isPublished": true, "name": "Förskolan Bonk", "orgform": "Fristående (föräldrakooperativ)", "numberOfChildren": 39.0, "nyko_code": "14101", "nyko": 14101.0, "nyko_name": "Mariatorget", "abbrev_name": "Mtrg" }, "geometry": { "type": "Point", "coordinates": [ 18.062765415932983, 59.319352837498883 ] } },
{ "type": "Feature", "properties": { "address": "Thorsten Levenstams väg 10", "changed": "2023-10-25", "created": "2023-03-30", "isPublished": true, "name": "Förskolan Borgen", "orgform": "Fristående", "numberOfChildren": 110.0, "nyko_code": "21608", "nyko": 21608.0, "nyko_name": "Sköndal", "abbrev_name": "Sköndal" }, "geometry": { "type": "Point", "coordinates": [ 18.120367703483097, 59.25473425398085 ] } },
{ "type": "Feature", "properties": { "address": "Brandliljegränd 3", "changed": "2023-03-30", "created": "2023-03-30", "isPublished": true, "name": "Förskolan Brandliljan", "orgform": "Kommunal", "numberOfChildren": 68.0, "nyko_code": "22503", "nyko": 22503.0, "nyko_name": "Hässelby Villastad", "abbrev_name": "Häb Vst" }, "geometry": { "type": "Point", "coordinates": [ 17.81671242957664, 59.390414391097394 ] } },
{ "type": "Feature", "properties": { "address": "Bredängs Allé 46", "changed": "2023-03-30", "created": "2023-03-30", "isPublished": true, "name": "Förskolan Bredängs Allé 46", "orgform": "Kommunal", "numberOfChildren": 70.0, "nyko_code": "21701", "nyko": 21701.0, "nyko_name": "Bredäng", "abbrev_name": "Bredäng" }, "geometry": { "type": "Point", "coordinates": [ 17.931109168287229, 59.291522186634324 ] } },
{ "type": "Feature", "properties": { "address": "Bredängs Allé 49", "changed": "2023-03-30", "created": "2023-03-30", "isPublished": true, "name": "Förskolan Bredängs Allé 49", "orgform": "Kommunal", "numberOfChildren": 42.0, "nyko_code": "21701", "nyko": 21701.0, "nyko_name": "Bredäng", "abbrev_name": "Bredäng" }, "geometry": { "type": "Point", "coordinates": [ 17.932023436693719, 59.290616025161071 ] } },
{ "type": "Feature", "properties": { "address": "Bredängstorget 29", "changed": "2023-08-23", "created": "2023-03-30", "isPublished": true, "name": "Förskolan Bredängstorget 29", "orgform": "Kommunal", "numberOfChildren": 60.0, "nyko_code": "21701", "nyko": 21701.0, "nyko_name": "Bredäng", "abbrev_name": "Bredäng" }, "geometry": { "type": "Point", "coordinates": [ 17.934070221063763, 59.29382174100629 ] } },
{ "type": "Feature", "properties": { "address": "Breitenfeldsgatan 1", "changed": "2024-01-18", "created": "2023-03-30", "isPublished": true, "name": "Förskolan Breiten", "orgform": "Kommunal", "numberOfChildren": 26.0, "nyko_code": "12301", "nyko": 12301.0, "nyko_name": "Oscars k:a", "abbrev_name": "Osc K:a" }, "geometry": { "type": "Point", "coordinates": [ 18.094517616154278, 59.338579512522166 ] } },
{ "type": "Feature", "properties": { "address": "Lofotengatan 30", "changed": "2024-01-09", "created": "2023-03-30", "isPublished": true, "name": "Förskolan Brostugan", "orgform": "Kommunal", "numberOfChildren": 58.0, "nyko_code": "22602", "nyko": 22602.0, "nyko_name": "Husby", "abbrev_name": "Husby" }, "geometry": { "type": "Point", "coordinates": [ 17.927732426492621, 59.410944619546349 ] } },
{ "type": "Feature", "properties": { "address": "Surbrunnsgatan 27", "changed": "2023-12-19", "created": "2023-03-30", "isPublished": true, "name": "Förskolan Brunnen", "orgform": "Kommunal", "numberOfChildren": 53.0, "nyko_code": "11102", "nyko": 11102.0, "nyko_name": "Norra Johannes", "abbrev_name": "N Joh" }, "geometry": { "type": "Point", "coordinates": [ 18.05958043998714, 59.345853234472678 ] } },
{ "type": "Feature", "properties": { "address": "Eastmansvägen 8", "changed": "2023-12-19", "created": "2023-03-30", "isPublished": true, "name": "Förskolan Brunnsmästaren", "orgform": "Kommunal", "numberOfChildren": 72.0, "nyko_code": "11301", "nyko": 11301.0, "nyko_name": "Gustav Vasa", "abbrev_name": "GV" }, "geometry": { "type": "Point", "coordinates": [ 18.045072777062447, 59.33981781919281 ] } },
{ "type": "Feature", "properties": { "address": "Fleminggatan 103", "changed": "2023-10-12", "created": "2023-03-30", "isPublished": true, "name": "Förskolan Bubblan", "orgform": "Fristående", "numberOfChildren": 27.0, "nyko_code": "13201", "nyko": 13201.0, "nyko_name": "Östra S:t Göran", "abbrev_name": "Ö S:tG" }, "geometry": { "type": "Point", "coordinates": [ 18.028902071361838, 59.334813472217242 ] } },
{ "type": "Feature", "properties": { "address": "Mariehamnsgatan 7", "changed": "2023-06-30", "created": "2023-03-30", "isPublished": true, "name": "Förskolan Bullerbyn Mariehamnsgatan 7", "orgform": "Kommunal", "numberOfChildren": 82.0, "nyko_code": "22601", "nyko": 22601.0, "nyko_name": "Akalla", "abbrev_name": "Akalla" }, "geometry": { "type": "Point", "coordinates": [ 17.910587077934849, 59.415395316572763 ] } },
{ "type": "Feature", "properties": { "address": "Norrbackagatan 41", "changed": "2023-06-30", "created": "2023-03-30", "isPublished": true, "name": "Förskolan Byttan", "orgform": "Fristående", "numberOfChildren": 55.0, "nyko_code": "11402", "nyko": 11402.0, "nyko_name": "Västra Matteus", "abbrev_name": "V Mat" }, "geometry": { "type": "Point", "coordinates": [ 18.032003336373471, 59.344390760284703 ] } },
{ "type": "Feature", "properties": { "address": "Skagersvägen 38-40", "changed": "2023-12-28", "created": "2023-03-30", "isPublished": true, "name": "Förskolan Bägersta gård", "orgform": "Kommunal", "numberOfChildren": 70.0, "nyko_code": "21408", "nyko": 21408.0, "nyko_name": "Årsta", "abbrev_name": "Årsta" }, "geometry": { "type": "Point", "coordinates": [ 18.067251885039159, 59.296846194626575 ] } },
{ "type": "Feature", "properties": { "address": "Bäverbäcksgränd 5", "changed": "2023-03-30", "created": "2023-03-30", "isPublished": true, "name": "Förskolan Bäverhyddan", "orgform": "Kommunal", "numberOfChildren": 58.0, "nyko_code": "21303", "nyko": 21303.0, "nyko_name": "Rågsved", "abbrev_name": "Rågsved" }, "geometry": { "type": "Point", "coordinates": [ 18.037667740256019, 59.253976550678004 ] } },
{ "type": "Feature", "properties": { "address": "Bävervägen 43", "changed": "2024-01-22", "created": "2023-03-30", "isPublished": true, "name": "Förskolan Bävervägen 43", "orgform": "Kommunal", "numberOfChildren": 68.0, "nyko_code": "22101", "nyko": 22101.0, "nyko_name": "Abrahamsberg", "abbrev_name": "Abrbg" }, "geometry": { "type": "Point", "coordinates": [ 17.953705056797826, 59.334018516458173 ] } },
{ "type": "Feature", "properties": { "address": "Concordiavägen 29", "changed": "2023-08-23", "created": "2023-03-30", "isPublished": true, "name": "Förskolan Concordiavägen 29", "orgform": "Kommunal", "numberOfChildren": 69.0, "nyko_code": "21701", "nyko": 21701.0, "nyko_name": "Bredäng", "abbrev_name": "Bredäng" }, "geometry": { "type": "Point", "coordinates": [ 17.938404296279973, 59.294048278514879 ] } },
{ "type": "Feature", "properties": { "address": "Igeldammsgatan 22C", "changed": "2024-02-22", "created": "2023-03-30", "isPublished": true, "name": "Förskolan Dammen", "orgform": "Kommunal", "numberOfChildren": 71.0, "nyko_code": "13201", "nyko": 13201.0, "nyko_name": "Östra S:t Göran", "abbrev_name": "Ö S:tG" }, "geometry": { "type": "Point", "coordinates": [ 18.024581585304645, 59.33709441132784 ] } },
{ "type": "Feature", "properties": { "address": "Dartanjangs gata 1", "changed": "2023-10-25", "created": "2023-03-30", "isPublished": true, "name": "Förskolan Dartanjangs gata 1", "orgform": "Kommunal", "numberOfChildren": 90.0, "nyko_code": "22107", "nyko": 22107.0, "nyko_name": "Mariehäll", "abbrev_name": "Marieh" }, "geometry": { "type": "Point", "coordinates": [ 17.94571996343236, 59.36147476854493 ] } },
{ "type": "Feature", "properties": { "address": "Dartanjangs gata 3", "changed": "2023-09-20", "created": "2023-03-30", "isPublished": true, "name": "Förskolan Dartanjangs gata 3", "orgform": "Kommunal", "numberOfChildren": 90.0, "nyko_code": "22107", "nyko": 22107.0, "nyko_name": "Mariehäll", "abbrev_name": "Marieh" }, "geometry": { "type": "Point", "coordinates": [ 17.945068289164659, 59.362147737139423 ] } },
{ "type": "Feature", "properties": { "address": "Hyppingeplan 25", "changed": "2023-06-30", "created": "2023-03-30", "isPublished": true, "name": "Förskolan Delfi", "orgform": "Fristående", "numberOfChildren": 25.0, "nyko_code": "22408", "nyko": 22408.0, "nyko_name": "Tensta", "abbrev_name": "Tensta" }, "geometry": { "type": "Point", "coordinates": [ 17.90537506513796, 59.396110132316096 ] } },
{ "type": "Feature", "properties": { "address": "Förskolan Djupdalsvägen 72–74", "changed": "2023-09-20", "created": "2023-03-30", "isPublished": true, "name": "Förskolan Djupdalsvägen 72–74", "orgform": "Kommunal", "numberOfChildren": 67.0, "nyko_code": "22205", "nyko": 22205.0, "nyko_name": "Olovslund", "abbrev_name": "Olovsl" }, "geometry": { "type": "Point", "coordinates": [ 17.940345887488377, 59.327729471528947 ] } },
{ "type": "Feature", "properties": { "address": "Ryttmästarvägen 91", "changed": "2024-02-12", "created": "2023-03-30", "isPublished": true, "name": "Förskolan Draken", "orgform": "Kommunal", "numberOfChildren": 40.0, "nyko_code": "22303", "nyko": 22303.0, "nyko_name": "Nälsta", "abbrev_name": "Näl" }, "geometry": { "type": "Point", "coordinates": [ 17.869656721995202, 59.374526706482648 ] } },
{ "type": "Feature", "properties": { "address": "Drottningholmsvägen 510A", "changed": "2023-09-20", "created": "2023-03-30", "isPublished": true, "name": "Förskolan Drottningholmsvägen 510A", "orgform": "Kommunal", "numberOfChildren": 50.0, "nyko_code": "22204", "nyko": 22204.0, "nyko_name": "Nockebyhov", "abbrev_name": "Nobyh" }, "geometry": { "type": "Point", "coordinates": [ 17.926521938838512, 59.335639769508823 ] } },
{ "type": "Feature", "properties": { "address": "Bjursätragatan 72", "changed": "2023-03-30", "created": "2023-03-30", "isPublished": true, "name": "Förskolan Dungen", "orgform": "Kommunal", "numberOfChildren": 70.0, "nyko_code": "21303", "nyko": 21303.0, "nyko_name": "Rågsved", "abbrev_name": "Rågsved" }, "geometry": { "type": "Point", "coordinates": [ 18.027238376785146, 59.25374575657456 ] } },
{ "type": "Feature", "properties": { "address": "Pär Lagerkvists gata 8-10", "changed": "2024-02-16", "created": "2023-03-30", "isPublished": true, "name": "Förskolan Eden", "orgform": "Kommunal", "numberOfChildren": 107.0, "nyko_code": "13203", "nyko": 13203.0, "nyko_name": "Stadshagen", "abbrev_name": "Sthg" }, "geometry": { "type": "Point", "coordinates": [ 18.00822352215841, 59.33864941816153 ] } },
{ "type": "Feature", "properties": { "address": "Kungsholms hamnplan 6", "changed": "2024-01-03", "created": "2023-03-30", "isPublished": true, "name": "Förskolan Eira", "orgform": "Kommunal", "numberOfChildren": 76.0, "nyko_code": "13101", "nyko": 13101.0, "nyko_name": "Kungsholm", "abbrev_name": "Kun" }, "geometry": { "type": "Point", "coordinates": [ 18.046672443177584, 59.327438538050821 ] } },
{ "type": "Feature", "properties": { "address": "Svedalavägen 13", "changed": "2023-03-30", "created": "2023-03-30", "isPublished": true, "name": "Förskolan Ekbacken", "orgform": "Fristående", "numberOfChildren": 76.0, "nyko_code": "21501", "nyko": 21501.0, "nyko_name": "Björkhagen", "abbrev_name": "Bjöhg" }, "geometry": { "type": "Point", "coordinates": [ 18.10830655363042, 59.292904713416426 ] } },
{ "type": "Feature", "properties": { "address": "Ribegatan 240", "changed": "2024-01-12", "created": "2023-03-30", "isPublished": true, "name": "Förskolan Ekbacken Ribegatan 240", "orgform": "Kommunal", "numberOfChildren": 49.0, "nyko_code": "22603", "nyko": 22603.0, "nyko_name": "Kista", "abbrev_name": "Kista" }, "geometry": { "type": "Point", "coordinates": [ 17.930462082138312, 59.40222992895518 ] } },
{ "type": "Feature", "properties": { "address": "Ekebergabacken 40", "changed": "2023-10-17", "created": "2023-03-30", "isPublished": true, "name": "Förskolan Ekebergabacken", "orgform": "Kommunal", "numberOfChildren": 104.0, "nyko_code": "21602", "nyko": 21602.0, "nyko_name": "Farsta", "abbrev_name": "Farsta" }, "geometry": { "type": "Point", "coordinates": [ 18.101594454757649, 59.248744840475837 ] } },
{ "type": "Feature", "properties": { "address": "Bersågränd 4-8", "changed": "2023-09-18", "created": "2023-03-30", "isPublished": true, "name": "Förskolan Ekgården", "orgform": "Kommunal", "numberOfChildren": 50.0, "nyko_code": "21403", "nyko": 21403.0, "nyko_name": "Gamla Enskede", "abbrev_name": "G:la En" }, "geometry": { "type": "Point", "coordinates": [ 18.097648696878181, 59.284618706752575 ] } },
{ "type": "Feature", "properties": { "address": null, "changed": "2024-01-22", "created": "2023-03-30", "isPublished": true, "name": "Förskolan Ekholmsvägen 133", "orgform": "Kommunal", "numberOfChildren": 0.0, "nyko_code": "21703", "nyko": 21703.0, "nyko_name": "Skärholmen", "abbrev_name": "Skhlm" }, "geometry": { "type": "Point", "coordinates": [ 17.901150587458112, 59.275183320800529 ] } },
{ "type": "Feature", "properties": { "address": "Ekholmsvägen 227", "changed": "2024-03-04", "created": "2023-03-30", "isPublished": true, "name": "Förskolan Ekholmsvägen 227", "orgform": "Kommunal", "numberOfChildren": 69.0, "nyko_code": "21703", "nyko": 21703.0, "nyko_name": "Skärholmen", "abbrev_name": "Skhlm" }, "geometry": { "type": "Point", "coordinates": [ 17.901179658291525, 59.277256954827557 ] } },
{ "type": "Feature", "properties": { "address": "Ekholmsvägen 229", "changed": "2024-03-04", "created": "2023-03-30", "isPublished": true, "name": "Förskolan Ekholmsvägen 229", "orgform": "Kommunal", "numberOfChildren": 51.0, "nyko_code": "21703", "nyko": 21703.0, "nyko_name": "Skärholmen", "abbrev_name": "Skhlm" }, "geometry": { "type": "Point", "coordinates": [ 17.901055394313776, 59.277768530859085 ] } },
{ "type": "Feature", "properties": { "address": "Ekholmsvägen 333", "changed": "2024-03-04", "created": "2023-03-30", "isPublished": true, "name": "Förskolan Ekholmsvägen 333", "orgform": "Kommunal", "numberOfChildren": 51.0, "nyko_code": "21703", "nyko": 21703.0, "nyko_name": "Skärholmen", "abbrev_name": "Skhlm" }, "geometry": { "type": "Point", "coordinates": [ 17.908189726576154, 59.279461369921059 ] } },
{ "type": "Feature", "properties": { "address": "Vittangigatan 41", "changed": "2024-02-23", "created": "2023-03-30", "isPublished": true, "name": "Förskolan Ekorrbacken", "orgform": "Fristående", "numberOfChildren": 19.0, "nyko_code": "22306", "nyko": 22306.0, "nyko_name": "Vällingby", "abbrev_name": "Vby" }, "geometry": { "type": "Point", "coordinates": [ 17.869456566989008, 59.362524856476981 ] } },
{ "type": "Feature", "properties": { "address": "Yttersta Tvärgränd 11", "changed": "2023-03-30", "created": "2023-03-30", "isPublished": true, "name": "Förskolan Elvan", "orgform": "Fristående", "numberOfChildren": 36.0, "nyko_code": "14201", "nyko": 14201.0, "nyko_name": "Norra Högalid", "abbrev_name": "N Hög" }, "geometry": { "type": "Point", "coordinates": [ 18.050225779342046, 59.318945348836635 ] } },
{ "type": "Feature", "properties": { "address": "Enskede Gårdsväg 16-20", "changed": "2023-12-28", "created": "2023-03-30", "isPublished": true, "name": "Förskolan Enskede Gård", "orgform": "Kommunal", "numberOfChildren": 90.0, "nyko_code": "21402", "nyko": 21402.0, "nyko_name": "Enskede Gård", "abbrev_name": "Ensk G" }, "geometry": { "type": "Point", "coordinates": [ 18.067199476761804, 59.288067058753718 ] } },
{ "type": "Feature", "properties": { "address": "Vänskapsvägen 45", "changed": "2023-10-09", "created": "2023-03-30", "isPublished": true, "name": "Förskolan Essingebarnen", "orgform": "Fristående", "numberOfChildren": 25.0, "nyko_code": "13302", "nyko": 13302.0, "nyko_name": "Stora Essingen", "abbrev_name": "St Ess" }, "geometry": { "type": "Point", "coordinates": [ 17.985791756151791, 59.321395889208723 ] } },
{ "type": "Feature", "properties": { "address": "Essingestråket 28A", "changed": "2024-02-11", "created": "2023-03-30", "isPublished": true, "name": "Förskolan Essingehöjden", "orgform": "Kommunal", "numberOfChildren": 104.0, "nyko_code": "13302", "nyko": 13302.0, "nyko_name": "Stora Essingen", "abbrev_name": "St Ess" }, "geometry": { "type": "Point", "coordinates": [ 17.985159811086383, 59.320677690251898 ] } },
{ "type": "Feature", "properties": { "address": "Falkholmsgränd 40", "changed": "2024-01-23", "created": "2023-03-30", "isPublished": true, "name": "Förskolan Falkholmsgränd 40", "orgform": "Kommunal", "numberOfChildren": 35.0, "nyko_code": "21703", "nyko": 21703.0, "nyko_name": "Skärholmen", "abbrev_name": "Skhlm" }, "geometry": { "type": "Point", "coordinates": [ 17.896524759902178, 59.279497507664679 ] } },
{ "type": "Feature", "properties": { "address": "Hårdvallsgatan 16", "changed": "2024-01-15", "created": "2023-03-30", "isPublished": true, "name": "Förskolan Fjällklockan", "orgform": "Kommunal", "numberOfChildren": 86.0, "nyko_code": "12104", "nyko": 12104.0, "nyko_name": "Hjorthagen-Värtahamnen", "abbrev_name": "Hjo-Vä" }, "geometry": { "type": "Point", "coordinates": [ 18.08984951567896, 59.354139220432558 ] } },
{ "type": "Feature", "properties": { "address": "Observatoriegatan 12", "changed": "2023-08-28", "created": "2023-03-30", "isPublished": true, "name": "Förskolan Flaggskeppet", "orgform": "Fristående", "numberOfChildren": 35.0, "nyko_code": "11301", "nyko": 11301.0, "nyko_name": "Gustav Vasa", "abbrev_name": "GV" }, "geometry": { "type": "Point", "coordinates": [ 18.049835678456891, 59.340381610395532 ] } },
{ "type": "Feature", "properties": { "address": "Lektorsstigen 19–21", "changed": "2024-01-15", "created": "2023-03-30", "isPublished": true, "name": "Förskolan Forskaren", "orgform": "Kommunal", "numberOfChildren": 88.0, "nyko_code": "12103", "nyko": 12103.0, "nyko_name": "Universitetet", "abbrev_name": "Univ" }, "geometry": { "type": "Point", "coordinates": [ 18.067486254566738, 59.370867049273564 ] } },
{ "type": "Feature", "properties": { "address": "Frejgatan 61", "changed": "2024-01-15", "created": "2023-03-30", "isPublished": true, "name": "Förskolan Freja", "orgform": "Kommunal", "numberOfChildren": 72.0, "nyko_code": "11301", "nyko": 11301.0, "nyko_name": "Gustav Vasa", "abbrev_name": "GV" },